,Lat,Lng,County Name
0,32.532237,-86.64644,Autauga County
1,30.659218,-87.746067,Baldwin County
2,31.870253,-85.405104,Barbour County
3,33.015893,-87.127148,Bibb County
4,33.977358,-86.56644,Blount County
5,32.101759,-85.717261,Bullock County
6,31.751667,-86.681969,Butler County
7,33.771706,-85.822513,Calhoun County
8,32.915504,-85.394032,Chambers County
9,34.069515,-85.654242,Cherokee County
10,32.854051,-86.726607,Chilton County
11,31.990954,-88.248889,Choctaw County
12,31.685521,-87.818624,Clarke County
13,33.2704,-85.863525,Clay County
14,33.671964,-85.516126,Cleburne County
15,31.402258,-85.989602,Coffee County
16,34.703112,-87.801457,Colbert County
17,31.430926,-86.988722,Conecuh County
18,32.931445,-86.243482,Coosa County
19,31.243987,-86.448721,Covington County
20,31.732826,-86.319222,Crenshaw County
21,34.131923,-86.869267,Cullman County
22,31.430654,-85.609476,Dale County
23,32.33354,-87.114356,Dallas County
24,34.460929,-85.803992,DeKalb County
25,32.597229,-86.142735,Elmore County
26,31.122287,-87.16841,Escambia County
27,34.047641,-86.034263,Etowah County
28,33.716157,-87.764292,Fayette County
29,34.441989,-87.842814,Franklin County
30,31.092382,-85.821022,Geneva County
31,32.844497,-87.9642,Greene County
32,32.752796,-87.623061,Hale County
33,31.516978,-85.239971,Henry County
34,31.158183,-85.296411,Houston County
35,34.764114,-85.980056,Jackson County
36,33.553444,-86.896536,Jefferson County
37,33.787085,-88.087431,Lamar County
38,34.904122,-87.650997,Lauderdale County
39,34.529776,-87.321865,Lawrence County
40,32.604064,-85.353048,Lee County
41,34.810239,-86.981399,Limestone County
42,32.147888,-86.650586,Lowndes County
43,32.387027,-85.692887,Macon County
44,34.764238,-86.55108,Madison County
45,32.247591,-87.791091,Marengo County
46,34.138219,-87.881551,Marion County
47,34.309564,-86.321668,Marshall County
48,30.684572,-88.196568,Mobile County
49,31.580332,-87.383266,Monroe County
50,32.202881,-86.204461,Montgomery County
51,34.454484,-86.846402,Morgan County
52,32.639005,-87.293827,Perry County
53,33.296793,-88.096863,Pickens County
54,31.798651,-85.941604,Pike County
55,33.296475,-85.464068,Randolph County
56,32.289811,-85.18698,Russell County
57,33.712963,-86.315663,St. Clair County
58,33.263043,-86.678089,Shelby County
59,32.597481,-88.200057,Sumter County
60,33.369314,-86.17593,Talladega County
61,32.863308,-85.799618,Tallapoosa County
62,33.29022,-87.522783,Tuscaloosa County
63,33.791558,-87.301094,Walker County
64,31.405217,-88.197564,Washington County
65,31.990082,-87.304935,Wilcox County
66,34.154607,-87.36529,Winston County
67,55.245044,-161.997477,Aleutians East Borough
68,51.948964,179.621188,Aleutians West Census Area
69,61.17425,-149.284329,Anchorage Municipality
70,60.929141,-160.152625,Bethel Census Area
71,58.741647,-156.966909,Bristol Bay Borough
72,63.682039,-150.027016,Denali Borough
73,59.543326,-158.267123,Dillingham Census Area
74,64.676044,-146.548159,Fairbanks North Star Borough
75,59.098404,-135.575791,Haines Borough
76,58.253462,-136.320731,Hoonah-Angoon Census Area
77,58.37291,-134.178445,Juneau City and Borough
78,60.366668,-152.322283,Kenai Peninsula Borough
79,55.449938,-131.106685,Ketchikan Gateway Borough
80,57.7044,-153.918372,Kodiak Island Borough
81,62.283588,-163.190171,Kusilvak Census Area
82,58.108507,-156.413413,Lake and Peninsula Borough
83,62.279094,-149.619094,Matanuska-Susitna Borough
84,64.783686,-164.188912,Nome Census Area
85,69.449343,-153.47283,North Slope Borough
86,67.005066,-160.021086,Northwest Arctic Borough
87,57.112458,-133.008598,Petersburg Borough
88,55.682773,-133.162389,Prince of Wales-Hyder Census Area
89,57.193204,-135.367396,Sitka City and Borough
90,59.560379,-135.338279,Skagway Municipality
91,63.864997,-143.218628,Southeast Fairbanks Census Area
92,61.34984,-145.023141,Valdez-Cordova Census Area
93,56.317416,-132.343978,Wrangell City and Borough
94,60.017453,-140.416942,Yakutat City and Borough
95,65.375727,-151.57785,Yukon-Koyukuk Census Area
96,35.385084,-109.490172,Apache County
97,31.840129,-109.775163,Cochise County
98,35.829692,-111.773728,Coconino County
99,33.789618,-110.81187,Gila County
100,32.931828,-109.87831,Graham County
101,33.238872,-109.242323,Greenlee County
102,33.72761,-114.038806,La Paz County
103,33.345176,-112.49893,Maricopa County
104,35.717705,-113.749689,Mohave County
105,35.390785,-110.321025,Navajo County
106,32.128043,-111.783657,Pima County
107,32.918521,-111.36634,Pinal County
108,31.525733,-110.845228,Santa Cruz County
109,34.631071,-112.577225,Yavapai County
110,32.773942,-113.910905,Yuma County
111,34.28957,-91.376547,Arkansas County
112,33.190835,-91.772267,Ashley County
113,36.280268,-92.329949,Baxter County
114,36.337819,-94.256298,Benton County
115,36.304299,-93.079236,Boone County
116,33.466549,-92.169156,Bradley County
117,33.56046,-92.513879,Calhoun County
118,36.33737,-93.540972,Carroll County
119,33.267139,-91.297158,Chicot County
120,34.053316,-93.176208,Clark County
121,36.367302,-90.418704,Clay County
122,35.566315,-92.05995,Cleburne County
123,33.893201,-92.188714,Cleveland County
124,33.223038,-93.232843,Columbia County
125,35.265702,-92.689248,Conway County
126,35.827729,-90.631421,Craighead County
127,35.583011,-94.236219,Crawford County
128,35.211879,-90.315332,Crittenden County
129,35.285692,-90.763984,Cross County
130,33.967823,-92.653999,Dallas County
131,33.828752,-91.244103,Desha County
132,33.587242,-91.722778,Drew County
133,35.146548,-92.336928,Faulkner County
134,35.508558,-93.887665,Franklin County
135,36.383619,-91.819664,Fulton County
136,34.578852,-93.146932,Garland County
137,34.285568,-92.422979,Grant County
138,36.120607,-90.566346,Greene County
139,33.728329,-93.665479,Hempstead County
140,34.315177,-92.944147,Hot Spring County
141,34.083064,-93.990931,Howard County
142,35.737499,-91.559942,Independence County
143,36.094879,-91.913625,Izard County
144,35.596467,-91.223205,Jackson County
145,34.277239,-91.929673,Jefferson County
146,35.573359,-93.466322,Johnson County
147,33.240629,-93.611514,Lafayette County
148,36.041098,-91.101153,Lawrence County
149,34.779505,-90.779717,Lee County
150,33.957675,-91.727626,Lincoln County
151,33.699497,-94.229774,Little River County
152,35.218654,-93.72091,Logan County
153,34.755114,-91.894132,Lonoke County
154,36.012545,-93.724053,Madison County
155,36.266664,-92.678577,Marion County
156,33.305505,-93.901502,Miller County
157,35.766944,-90.052207,Mississippi County
158,34.679512,-91.20331,Monroe County
159,34.545656,-93.664153,Montgomery County
160,33.666699,-93.305072,Nevada County
161,35.910742,-93.215898,Newton County
162,33.591168,-92.878413,Ouachita County
163,34.946363,-92.926877,Perry County
164,34.423687,-90.855593,Phillips County
165,34.158191,-93.658659,Pike County
166,35.56887,-90.681104,Poinsett County
167,34.490915,-94.230884,Polk County
168,35.456557,-93.026818,Pope County
169,34.831116,-91.55362,Prairie County
170,34.770311,-92.312996,Pulaski County
171,36.341298,-91.028441,Randolph County
172,35.014026,-90.742138,St. Francis County
173,34.648525,-92.674463,Saline County
174,34.858869,-94.063641,Scott County
175,35.896387,-92.695888,Searcy County
176,35.196981,-94.274989,Sebastian County
177,33.994877,-94.243279,Sevier County
178,36.173399,-91.471069,Sharp County
179,35.857001,-92.140482,Stone County
180,33.168219,-92.598145,Union County
181,35.582953,-92.515976,Van Buren County
182,35.978001,-94.217269,Washington County
183,35.255118,-91.753034,White County
184,35.192777,-91.244535,Woodruff County
185,34.997713,-93.408303,Yell County
186,37.647139,-121.912488,Alameda County
187,38.621783,-119.798352,Alpine County
188,38.44355,-120.653856,Amador County
189,39.665959,-121.601919,Butte County
190,38.1839,-120.561441,Calaveras County
191,39.177739,-122.237563,Colusa County
192,37.919479,-121.951543,Contra Costa County
193,41.763958,-124.003614,Del Norte County
194,38.785612,-120.534225,El Dorado County
195,36.761006,-119.655019,Fresno County
196,39.602546,-122.4017,Glenn County
197,40.706655,-123.926176,Humboldt County
198,33.040814,-115.3554,Imperial County
199,36.561977,-117.403927,Inyo County
200,35.346629,-118.729506,Kern County
201,36.072478,-119.81553,Kings County
202,39.094802,-122.746757,Lake County
203,40.721086,-120.629952,Lassen County
204,34.196398,-118.261862,Los Angeles County
205,37.209821,-119.749802,Madera County
206,38.051817,-122.745974,Marin County
207,37.57003,-119.912861,Mariposa County
208,39.432388,-123.442881,Mendocino County
209,37.194806,-120.722802,Merced County
210,41.592918,-120.71837,Modoc County
211,37.915836,-118.875167,Mono County
212,36.240107,-121.315572,Monterey County
213,38.5071,-122.325904,Napa County
214,39.297508,-120.771343,Nevada County
215,33.675687,-117.777207,Orange County
216,39.062032,-120.722718,Placer County
217,39.992295,-120.824371,Plumas County
218,33.729828,-116.002239,Riverside County
219,38.450016,-121.340441,Sacramento County
220,36.610702,-121.085296,San Benito County
221,34.85722,-116.181197,San Bernardino County
222,33.023604,-116.776117,San Diego County
223,37.727239,-123.032229,San Francisco County
224,37.934982,-121.272244,San Joaquin County
225,35.385224,-120.447544,San Luis Obispo County
226,37.414672,-122.371546,San Mateo County
227,34.537057,-120.039973,Santa Barbara County
228,37.220777,-121.690622,Santa Clara County
229,37.012488,-122.007205,Santa Cruz County
230,40.760514,-122.043556,Shasta County
231,39.576925,-120.521993,Sierra County
232,41.587986,-122.533287,Siskiyou County
233,38.267226,-121.939594,Solano County
234,38.525182,-122.92611,Sonoma County
235,37.562316,-121.002831,Stanislaus County
236,39.03619,-121.70394,Sutter County
237,40.126157,-122.232274,Tehama County
238,40.647803,-123.114476,Trinity County
239,36.228834,-118.781055,Tulare County
240,38.021434,-119.964733,Tuolumne County
241,34.358741,-119.133143,Ventura County
242,38.679596,-121.902441,Yolo County
243,39.27013,-121.344259,Yuba County
244,39.874325,-104.331872,Adams County
245,37.568442,-105.788041,Alamosa County
246,39.644554,-104.331706,Arapahoe County
247,37.202395,-107.050863,Archuleta County
248,37.30978,-102.543741,Baca County
249,37.931891,-103.077584,Bent County
250,40.09497,-105.397691,Boulder County
251,39.953593,-105.050787,Broomfield County
252,38.738223,-106.316683,Chaffee County
253,38.835646,-102.601791,Cheyenne County
254,39.669732,-105.69257,Clear Creek County
255,37.213406,-106.176447,Conejos County
256,37.277547,-105.42894,Costilla County
257,38.30618,-103.772736,Crowley County
258,38.101994,-105.373515,Custer County
259,38.861756,-107.864757,Delta County
260,39.76185,-104.881105,Denver County
261,37.711723,-108.524116,Dolores County
262,39.325414,-104.925987,Douglas County
263,39.626992,-106.695169,Eagle County
264,39.315157,-104.114076,Elbert County
265,38.827383,-104.527472,El Paso County
266,38.45517,-105.424958,Fremont County
267,39.599352,-107.90978,Garfield County
268,39.861156,-105.528878,Gilpin County
269,40.123205,-106.095935,Grand County
270,38.67264,-107.066506,Gunnison County
271,37.821165,-107.338261,Hinsdale County
272,37.687815,-104.959928,Huerfano County
273,40.663432,-106.329248,Jackson County
274,39.579511,-105.245462,Jefferson County
275,38.387663,-102.756849,Kiowa County
276,39.30534,-102.603023,Kit Carson County
277,39.205341,-106.350079,Lake County
278,37.287367,-107.839718,La Plata County
279,40.658093,-105.486764,Larimer County
280,37.318831,-104.04411,Las Animas County
281,38.99374,-103.507555,Lincoln County
282,40.728091,-103.090464,Logan County
283,39.019421,-108.461893,Mesa County
284,37.549067,-107.003236,Mineral County
285,40.610864,-108.217154,Moffat County
286,37.338025,-108.595786,Montezuma County
287,38.407507,-108.266282,Montrose County
288,40.263159,-103.81221,Morgan County
289,37.88417,-103.72126,Otero County
290,38.154731,-107.78848,Ouray County
291,39.118914,-105.717648,Park County
292,40.594712,-102.345105,Phillips County
293,39.217332,-106.915783,Pitkin County
294,37.958181,-102.392161,Prowers County
295,38.170658,-104.489892,Pueblo County
296,39.972622,-108.200716,Rio Blanco County
297,37.485853,-106.453128,Rio Grande County
298,40.483664,-106.987702,Routt County
299,38.031651,-106.234666,Saguache County
300,37.781074,-107.670257,San Juan County
301,38.009319,-108.427263,San Miguel County
302,40.871568,-102.355358,Sedgwick County
303,39.621023,-106.137555,Summit County
304,38.869976,-105.187365,Teller County
305,39.96579,-103.209744,Washington County
306,40.555961,-104.383666,Weld County
307,40.000631,-102.422649,Yuma County
308,41.227413,-73.367061,Fairfield County
309,41.806053,-72.732916,Hartford County
310,41.791883,-73.235404,Litchfield County
311,41.433003,-72.52278,Middlesex County
312,41.349717,-72.900204,New Haven County
313,41.472652,-72.108634,New London County
314,41.858081,-72.340978,Tolland County
315,41.824999,-71.990702,Windham County
316,39.097088,-75.502982,Kent County
317,39.575915,-75.644132,New Castle County
318,38.673227,-75.337024,Sussex County
319,38.904103,-77.017229,District of Columbia
320,29.67574,-82.357221,Alachua County
321,30.324442,-82.302284,Baker County
322,30.238218,-85.63168,Bay County
323,29.952386,-82.166679,Bradford County
324,28.298678,-80.700534,Brevard County
325,26.193535,-80.476683,Broward County
326,30.388801,-85.197915,Calhoun County
327,26.868974,-81.941278,Charlotte County
328,28.84364,-82.52481,Citrus County
329,29.986584,-81.865036,Clay County
330,26.118786,-81.400955,Collier County
331,30.221226,-82.623114,Columbia County
332,27.190581,-81.806253,DeSoto County
333,29.580899,-83.195666,Dixie County
334,30.335245,-81.648113,Duval County
335,30.611638,-87.3389,Escambia County
336,29.474882,-81.286273,Flagler County
337,29.810176,-84.799174,Franklin County
338,30.578687,-84.612607,Gadsden County
339,29.723456,-82.795801,Gilchrist County
340,26.95481,-81.19082,Glades County
341,29.907257,-85.256537,Gulf County
342,30.491187,-82.951071,Hamilton County
343,27.492846,-81.82158,Hardee County
344,26.539967,-81.152114,Hendry County
345,28.573043,-82.466227,Hernando County
346,27.34108,-81.342353,Highlands County
347,27.906607,-82.349719,Hillsborough County
348,30.862007,-85.815939,Holmes County
349,27.700528,-80.574789,Indian River County
350,30.789249,-85.208814,Jackson County
351,30.424558,-83.890859,Jefferson County
352,29.990066,-83.17851,Lafayette County
353,28.764113,-81.712282,Lake County
354,26.559035,-81.891994,Lee County
355,30.45931,-84.2778,Leon County
356,29.284457,-82.783462,Levy County
357,30.259849,-84.86858,Liberty County
358,30.447233,-83.470416,Madison County
359,27.481682,-82.368767,Manatee County
360,29.202805,-82.0431,Marion County
361,27.083604,-80.398201,Martin County
362,25.61058,-80.497099,Miami-Dade County
363,24.768883,-80.95327,Monroe County
364,30.605963,-81.765087,Nassau County
365,30.665851,-86.594187,Okaloosa County
366,27.385592,-80.887388,Okeechobee County
367,28.514391,-81.323284,Orange County
368,28.059027,-81.139312,Osceola County
369,26.649126,-80.448354,Palm Beach County
370,28.307711,-82.464832,Pasco County
371,27.903108,-82.739519,Pinellas County
372,27.953581,-81.69347,Polk County
373,29.593896,-81.732039,Putnam County
374,29.890644,-81.383948,St. Johns County
375,27.379814,-80.443536,St. Lucie County
376,30.701838,-87.012762,Santa Rosa County
377,27.184386,-82.365835,Sarasota County
378,28.690092,-81.131989,Seminole County
379,28.714101,-82.074347,Sumter County
380,30.189244,-82.992754,Suwannee County
381,30.009908,-83.609483,Taylor County
382,30.05428,-82.366918,Union County
383,29.057769,-81.161792,Volusia County
384,30.139432,-84.374846,Wakulla County
385,30.631211,-86.176614,Walton County
386,30.602217,-85.662797,Washington County
387,31.739712,-82.290103,Appling County
388,31.296806,-82.878151,Atkinson County
389,31.55021,-82.451433,Bacon County
390,31.31958,-84.454881,Baker County
391,33.05949,-83.255457,Baldwin County
392,34.351922,-83.498441,Banks County
393,33.992009,-83.712303,Barrow County
394,34.240917,-84.838188,Bartow County
395,31.740772,-83.147197,Ben Hill County
396,31.288652,-83.22787,Berrien County
397,32.808845,-83.694194,Bibb County
398,32.435403,-83.331717,Bleckley County
399,31.197334,-81.982978,Brantley County
400,30.822934,-83.581905,Brooks County
401,32.017969,-81.438543,Bryan County
402,32.391711,-81.744021,Bulloch County
403,33.060181,-82.000164,Burke County
404,33.290355,-83.958221,Butts County
405,31.521279,-84.62629,Calhoun County
406,30.913358,-81.642019,Camden County
407,32.40395,-82.071266,Candler County
408,33.582237,-85.080527,Carroll County
409,34.900218,-85.139386,Catoosa County
410,30.779904,-82.139644,Charlton County
411,31.980404,-81.085184,Chatham County
412,32.347445,-84.788021,Chattahoochee County
413,34.474178,-85.345289,Chattooga County
414,34.244317,-84.475057,Cherokee County
415,33.952185,-83.367152,Clarke County
416,31.619831,-84.992583,Clay County
417,33.542686,-84.355573,Clayton County
418,30.917653,-82.702614,Clinch County
419,33.939941,-84.574167,Cobb County
420,31.549245,-82.84494,Coffee County
421,31.189707,-83.769773,Colquitt County
422,33.547631,-82.252296,Columbia County
423,31.152516,-83.429445,Cook County
424,33.352897,-84.762138,Coweta County
425,32.709428,-83.979187,Crawford County
426,31.915149,-83.753531,Crisp County
427,34.852424,-85.506201,Dade County
428,34.442608,-84.173261,Dawson County
429,30.880597,-84.583895,Decatur County
430,33.770661,-84.226343,DeKalb County
431,32.164369,-83.167866,Dodge County
432,32.151995,-83.807167,Dooly County
433,31.532588,-84.20904,Dougherty County
434,33.701242,-84.767314,Douglas County
435,31.324191,-84.906723,Early County
436,30.714008,-82.897376,Echols County
437,32.361688,-81.343357,Effingham County
438,34.116413,-82.841909,Elbert County
439,32.5911,-82.299763,Emanuel County
440,32.153083,-81.890153,Evans County
441,34.866543,-84.317331,Fannin County
442,33.412717,-84.493941,Fayette County
443,34.263692,-85.213685,Floyd County
444,34.225143,-84.127408,Forsyth County
445,34.375345,-83.227448,Franklin County
446,33.790034,-84.468182,Fulton County
447,34.690506,-84.454624,Gilmer County
448,33.227491,-82.606913,Glascock County
449,31.21271,-81.49645,Glynn County
450,34.509667,-84.873862,Gordon County
451,30.8759,-84.24502,Grady County
452,33.57674,-83.166613,Greene County
453,33.959146,-84.023087,Gwinnett County
454,34.634392,-83.525875,Habersham County
455,34.317569,-83.8185,Hall County
456,33.26922,-83.000465,Hancock County
457,33.795165,-85.220063,Haralson County
458,32.731549,-84.912432,Harris County
459,34.348733,-82.96329,Hart County
460,33.291347,-85.137886,Heard County
461,33.452947,-84.154021,Henry County
462,32.458287,-83.662522,Houston County
463,31.604306,-83.277037,Irwin County
464,34.130881,-83.562566,Jackson County
465,33.318169,-83.690142,Jasper County
466,31.811615,-82.636825,Jeff Davis County
467,33.058176,-82.420004,Jefferson County
468,32.794563,-81.971524,Jenkins County
469,32.694584,-82.66397,Johnson County
470,33.021664,-83.562196,Jones County
471,33.07444,-84.146689,Lamar County
472,31.038197,-83.063164,Lanier County
473,32.39322,-82.926317,Laurens County
474,31.818419,-84.146681,Lee County
475,31.807458,-81.457871,Liberty County
476,33.792151,-82.448299,Lincoln County
477,31.749563,-81.74287,Long County
478,30.833145,-83.268995,Lowndes County
479,34.56814,-83.998925,Lumpkin County
480,33.479623,-82.478733,McDuffie County
481,31.488506,-81.372289,McIntosh County
482,32.362686,-84.051231,Macon County
483,34.128526,-83.203737,Madison County
484,32.359312,-84.528735,Marion County
485,33.029267,-84.667058,Meriwether County
486,31.162931,-84.730398,Miller County
487,31.228997,-84.192038,Mitchell County
488,33.017435,-83.922938,Monroe County
489,32.172108,-82.533349,Montgomery County
490,33.598696,-83.499435,Morgan County
491,34.797097,-84.73799,Murray County
492,32.510197,-84.874946,Muscogee County
493,33.544041,-83.855184,Newton County
494,33.834125,-83.437728,Oconee County
495,33.866806,-83.074081,Oglethorpe County
496,33.92103,-84.867169,Paulding County
497,32.571324,-83.831978,Peach County
498,34.456746,-84.490351,Pickens County
499,31.353998,-82.21037,Pierce County
500,33.081224,-84.389848,Pike County
501,33.996015,-85.188338,Polk County
502,32.238803,-83.481845,Pulaski County
503,33.32106,-83.37179,Putnam County
504,31.86294,-85.004799,Quitman County
505,34.883934,-83.40487,Rabun County
506,31.762651,-84.752311,Randolph County
507,33.361487,-82.074998,Richmond County
508,33.652081,-84.02637,Rockdale County
509,32.263444,-84.322708,Schley County
510,32.744751,-81.617585,Screven County
511,30.93396,-84.867685,Seminole County
512,33.262348,-84.284905,Spalding County
513,34.552914,-83.290216,Stephens County
514,32.073225,-84.834912,Stewart County
515,32.042266,-84.204294,Sumter County
516,32.704603,-84.530029,Talbot County
517,33.559319,-82.875272,Taliaferro County
518,32.043768,-82.059208,Tattnall County
519,32.554667,-84.251426,Taylor County
520,31.913639,-82.931062,Telfair County
521,31.777191,-84.439446,Terrell County
522,30.864619,-83.919815,Thomas County
523,31.457003,-83.525931,Tift County
524,32.117812,-82.330626,Toombs County
525,34.902529,-83.732264,Towns County
526,32.409586,-82.570882,Treutlen County
527,33.034482,-85.02836,Troup County
528,31.7248,-83.620319,Turner County
529,32.665847,-83.425879,Twiggs County
530,34.833333,-83.989257,Union County
531,32.881837,-84.292283,Upson County
532,34.735802,-85.305456,Walker County
533,33.783887,-83.731829,Walton County
534,31.050881,-82.421507,Ware County
535,33.419169,-82.688012,Warren County
536,32.971843,-82.798112,Washington County
537,31.547845,-81.912376,Wayne County
538,32.046691,-84.553828,Webster County
539,32.105258,-82.733849,Wheeler County
540,34.643776,-83.743417,White County
541,34.801726,-84.968541,Whitfield County
542,31.962717,-83.438262,Wilcox County
543,33.779031,-82.747921,Wilkes County
544,32.804266,-83.175512,Wilkinson County
545,31.551773,-83.84996,Worth County
546,19.597764,-155.502443,Hawaii County
547,21.580023,-158.123406,Honolulu County
548,21.218764,-156.97401,Kalawao County
549,22.012038,-159.705965,Kauai County
550,20.855931,-156.60155,Maui County
551,43.451477,-116.244376,Ada County
552,44.877004,-116.461624,Adams County
553,42.692921,-112.228982,Bannock County
554,42.285892,-111.327517,Bear Lake County
555,47.218451,-116.633541,Benewah County
556,43.216357,-112.399206,Bingham County
557,43.394192,-113.955371,Blaine County
558,43.987275,-115.71511,Boise County
559,48.316796,-116.612364,Bonner County
560,43.395171,-111.621878,Bonneville County
561,48.773131,-116.524668,Boundary County
562,43.685101,-113.177631,Butte County
563,43.502552,-114.772135,Camas County
564,43.625796,-116.709058,Canyon County
565,42.786072,-111.544273,Caribou County
566,42.282313,-113.626328,Cassia County
567,44.290218,-112.354613,Clark County
568,46.67257,-115.6535,Clearwater County
569,44.273351,-114.252267,Custer County
570,43.394698,-115.471205,Elmore County
571,42.173609,-111.822965,Franklin County
572,44.218091,-111.484429,Fremont County
573,44.061473,-116.398784,Gem County
574,42.973185,-114.82142,Gooding County
575,45.849644,-115.467337,Idaho County
576,43.796965,-112.318588,Jefferson County
577,42.691395,-114.262086,Jerome County
578,47.675966,-116.695922,Kootenai County
579,46.81892,-116.730974,Latah County
580,44.928506,-113.887042,Lemhi County
581,46.236328,-116.42376,Lewis County
582,42.986181,-114.153899,Lincoln County
583,43.788614,-111.656993,Madison County
584,42.857211,-113.63984,Minidoka County
585,46.333791,-116.760909,Nez Perce County
586,42.183895,-112.520449,Oneida County
587,42.572851,-116.18969,Owyhee County
588,44.00243,-116.750238,Payette County
589,42.694126,-112.844407,Power County
590,47.347694,-115.885092,Shoshone County
591,43.760994,-111.211765,Teton County
592,42.352309,-114.665639,Twin Falls County
593,44.85596,-115.618061,Valley County
594,44.448223,-116.797792,Washington County
595,39.986052,-91.194961,Adams County
596,37.183658,-89.349516,Alexander County
597,38.885924,-89.436592,Bond County
598,42.318983,-88.824295,Boone County
599,39.962069,-90.750309,Brown County
600,41.401304,-89.528377,Bureau County
601,39.164262,-90.666295,Calhoun County
602,42.0709,-89.924189,Carroll County
603,39.969202,-90.245704,Cass County
604,40.138984,-88.196975,Champaign County
605,39.545524,-89.279593,Christian County
606,39.332364,-87.791687,Clark County
607,38.746819,-88.482325,Clay County
608,38.606295,-89.426228,Clinton County
609,39.51368,-88.220782,Coles County
610,41.894294,-87.645455,Cook County
611,39.002787,-87.760619,Crawford County
612,39.273121,-88.240619,Cumberland County
613,41.894612,-88.768991,DeKalb County
614,40.181499,-88.901853,De Witt County
615,39.766078,-88.222866,Douglas County
616,41.852058,-88.086038,DuPage County
617,39.679037,-87.74711,Edgar County
618,38.417095,-88.047941,Edwards County
619,39.047945,-88.592849,Effingham County
620,39.001125,-89.017923,Fayette County
621,40.596539,-88.224588,Ford County
622,37.991852,-88.926321,Franklin County
623,40.46524,-90.202269,Fulton County
624,37.768677,-88.227964,Gallatin County
625,39.355444,-90.387757,Greene County
626,41.29241,-88.401054,Grundy County
627,38.085227,-88.539009,Hamilton County
628,40.401318,-91.168801,Hancock County
629,37.517852,-88.266148,Hardin County
630,40.814471,-90.941246,Henderson County
631,41.350021,-90.130838,Henry County
632,40.748867,-87.833601,Iroquois County
633,37.786096,-89.381212,Jackson County
634,39.004874,-88.150763,Jasper County
635,38.30078,-88.92421,Jefferson County
636,39.080192,-90.361365,Jersey County
637,42.362391,-90.21147,Jo Daviess County
638,37.460709,-88.882131,Johnson County
639,41.939594,-88.42804,Kane County
640,41.13951,-87.861117,Kankakee County
641,41.58814,-88.430626,Kendall County
642,40.930945,-90.213792,Knox County
643,42.326441,-87.435976,Lake County
644,41.343341,-88.885931,LaSalle County
645,38.718954,-87.730221,Lawrence County
646,41.747442,-89.299351,Lee County
647,40.894376,-88.552852,Livingston County
648,40.129277,-89.365309,Logan County
649,40.455808,-90.678954,McDonough County
650,42.324298,-88.452245,McHenry County
651,40.494559,-88.844539,McLean County
652,39.860237,-88.961529,Macon County
653,39.2659,-89.926344,Macoupin County
654,38.827082,-89.900195,Madison County
655,38.648106,-88.920488,Marion County
656,41.031119,-89.342371,Marshall County
657,40.236993,-89.913575,Mason County
658,37.216119,-88.705658,Massac County
659,40.022569,-89.794133,Menard County
660,41.205605,-90.74177,Mercer County
661,38.277983,-90.179078,Monroe County
662,39.228093,-89.478004,Montgomery County
663,39.717621,-90.204824,Morgan County
664,39.636896,-88.625726,Moultrie County
665,42.041884,-89.320176,Ogle County
666,40.785995,-89.767106,Peoria County
667,38.084381,-89.368525,Perry County
668,40.009033,-88.592354,Piatt County
669,39.625106,-90.889034,Pike County
670,37.417169,-88.542374,Pope County
671,37.215615,-89.127755,Pulaski County
672,41.198961,-89.298347,Putnam County
673,38.056515,-89.82121,Randolph County
674,38.712187,-88.085452,Richland County
675,41.468421,-90.572125,Rock Island County
676,38.470198,-89.928546,St. Clair County
677,37.751508,-88.545024,Saline County
678,39.756867,-89.662425,Sangamon County
679,40.156905,-90.613464,Schuyler County
680,39.637002,-90.477771,Scott County
681,39.384926,-88.798862,Shelby County
682,41.096908,-89.797411,Stark County
683,42.349726,-89.665994,Stephenson County
684,40.508074,-89.51626,Tazewell County
685,37.485652,-89.244639,Union County
686,40.186754,-87.726778,Vermilion County
687,38.445821,-87.839167,Wabash County
688,40.850441,-90.620223,Warren County
689,38.35314,-89.417187,Washington County
690,38.431857,-88.43243,Wayne County
691,38.087372,-88.178585,White County
692,41.750571,-89.910957,Whiteside County
693,41.448474,-87.978456,Will County
694,37.730353,-88.930018,Williamson County
695,42.337396,-89.161205,Winnebago County
696,40.789787,-89.210587,Woodford County
697,40.745733,-84.93613,Adams County
698,41.091909,-85.071791,Allen County
699,39.205843,-85.897999,Bartholomew County
700,40.600983,-87.31479,Benton County
701,40.472672,-85.32373,Blackford County
702,40.050892,-86.469014,Boone County
703,39.192886,-86.239586,Brown County
704,40.58498,-86.565141,Carroll County
705,40.753799,-86.355168,Cass County
706,38.476217,-85.711122,Clark County
707,39.393951,-87.115837,Clay County
708,40.305944,-86.477567,Clinton County
709,38.289433,-86.440871,Crawford County
710,38.696089,-87.076944,Daviess County
711,39.14832,-84.973498,Dearborn County
712,39.30598,-85.499831,Decatur County
713,41.401189,-85.000185,DeKalb County
714,40.227543,-85.399262,Delaware County
715,38.373344,-86.873385,Dubois County
716,41.600693,-85.863986,Elkhart County
717,39.639655,-85.185031,Fayette County
718,38.318081,-85.911847,Floyd County
719,40.121237,-87.234872,Fountain County
720,39.409762,-85.066964,Franklin County
721,41.050384,-86.265006,Fulton County
722,38.317398,-87.580523,Gibson County
723,40.515758,-85.654946,Grant County
724,39.047147,-87.004771,Greene County
725,40.053507,-86.021713,Hamilton County
726,39.822529,-85.77315,Hancock County
727,38.186453,-86.103766,Harrison County
728,39.768963,-86.509908,Hendricks County
729,39.929591,-85.397363,Henry County
730,40.483537,-86.114118,Howard County
731,40.826394,-85.478597,Huntington County
732,38.911957,-86.042516,Jackson County
733,41.017688,-87.118814,Jasper County
734,40.434957,-85.002335,Jay County
735,38.783604,-85.44009,Jefferson County
736,38.996229,-85.628103,Jennings County
737,39.496092,-86.094264,Johnson County
738,38.688391,-87.420354,Knox County
739,41.244293,-85.861575,Kosciusko County
740,41.642468,-85.426302,LaGrange County
741,41.472247,-87.374337,Lake County
742,41.549013,-86.744739,LaPorte County
743,38.839815,-86.48782,Lawrence County
744,40.166203,-85.722454,Madison County
745,39.782976,-86.135794,Marion County
746,41.325003,-86.269036,Marshall County
747,38.705322,-86.801847,Martin County
748,40.772881,-86.044258,Miami County
749,39.160729,-86.52331,Monroe County
750,40.040296,-86.892715,Montgomery County
751,39.482646,-86.447457,Morgan County
752,40.962399,-87.402172,Newton County
753,41.404679,-85.417271,Noble County
754,38.940527,-84.964299,Ohio County
755,38.547381,-86.489257,Orange County
756,39.317339,-86.838845,Owen County
757,39.77425,-87.19695,Parke County
758,38.081436,-86.62654,Perry County
759,38.397961,-87.232547,Pike County
760,41.509914,-87.071313,Porter County
761,38.027614,-87.868653,Posey County
762,41.045272,-86.692538,Pulaski County
763,39.665548,-86.853373,Putnam County
764,40.164079,-85.00579,Randolph County
765,39.100226,-85.260494,Ripley County
766,39.622357,-85.466403,Rush County
767,41.617699,-86.288159,St. Joseph County
768,38.679431,-85.751898,Scott County
769,39.524135,-85.792174,Shelby County
770,38.009697,-87.010375,Spencer County
771,41.284478,-86.644636,Starke County
772,41.643467,-85.002405,Steuben County
773,39.089225,-87.415843,Sullivan County
774,38.825854,-85.029681,Switzerland County
775,40.389133,-86.893554,Tippecanoe County
776,40.310229,-86.056207,Tipton County
777,39.623111,-84.925152,Union County
778,38.02007,-87.586166,Vanderburgh County
779,39.854045,-87.462071,Vermillion County
780,39.429143,-87.390375,Vigo County
781,40.843747,-85.795192,Wabash County
782,40.352658,-87.375847,Warren County
783,38.097728,-87.272049,Warrick County
784,38.600613,-86.104751,Washington County
785,39.863091,-85.006735,Wayne County
786,40.735273,-85.212974,Wells County
787,40.75095,-86.864293,White County
788,41.136426,-85.501892,Whitley County
789,41.328528,-94.478164,Adair County
790,41.021656,-94.696906,Adams County
791,43.274964,-91.382751,Allamakee County
792,40.744296,-92.873061,Appanoose County
793,41.679178,-94.904312,Audubon County
794,42.092547,-92.05763,Benton County
795,42.471132,-92.3076,Black Hawk County
796,42.038642,-93.938358,Boone County
797,42.780895,-92.327356,Bremer County
798,42.470328,-91.838666,Buchanan County
799,42.741522,-95.141432,Buena Vista County
800,42.734708,-92.780066,Butler County
801,42.38617,-94.643683,Calhoun County
802,42.039492,-94.867647,Carroll County
803,41.333824,-94.933302,Cass County
804,41.77236,-91.132611,Cedar County
805,43.074975,-93.250965,Cerro Gordo County
806,42.742737,-95.633262,Cherokee County
807,43.059741,-92.31721,Chickasaw County
808,41.029191,-93.784096,Clarke County
809,43.081224,-95.149875,Clay County
810,42.840985,-91.323576,Clayton County
811,41.898073,-90.534243,Clinton County
812,42.043119,-95.38909,Crawford County
813,41.68532,-94.040706,Dallas County
814,40.748089,-92.410345,Davis County
815,40.736379,-93.78458,Decatur County
816,42.472937,-91.366767,Delaware County
817,40.915339,-91.186925,Des Moines County
818,43.389611,-95.196057,Dickinson County
819,42.463481,-90.878771,Dubuque County
820,43.377984,-94.66937,Emmet County
821,42.864122,-91.840376,Fayette County
822,43.052741,-92.787367,Floyd County
823,42.736545,-93.271415,Franklin County
824,40.74259,-95.599182,Fremont County
825,42.042494,-94.388703,Greene County
826,42.403323,-92.790261,Grundy County
827,41.683573,-94.501272,Guthrie County
828,42.390768,-93.709198,Hamilton County
829,43.075411,-93.743697,Hancock County
830,42.390208,-93.241669,Hardin County
831,41.688584,-95.827149,Harrison County
832,40.984802,-91.547259,Henry County
833,43.365312,-92.321908,Howard County
834,42.782221,-94.202775,Humboldt County
835,42.39186,-95.507421,Ida County
836,41.683918,-92.059123,Iowa County
837,42.164218,-90.57458,Jackson County
838,41.685551,-93.054147,Jasper County
839,41.005888,-91.966634,Jefferson County
840,41.670668,-91.590484,Johnson County
841,42.125118,-91.116914,Jones County
842,41.331182,-92.167721,Keokuk County
843,43.212478,-94.213983,Kossuth County
844,40.647588,-91.477157,Lee County
845,42.077951,-91.597674,Linn County
846,41.218211,-91.256994,Louisa County
847,41.033344,-93.331467,Lucas County
848,43.38358,-96.207201,Lyon County
849,41.330622,-94.015184,Madison County
850,41.330797,-92.636366,Mahaska County
851,41.331455,-93.093849,Marion County
852,42.041691,-92.981452,Marshall County
853,41.033703,-95.619101,Mills County
854,43.348564,-92.784466,Mitchell County
855,42.049432,-95.956566,Monona County
856,41.028847,-92.869642,Monroe County
857,41.021735,-95.15779,Montgomery County
858,41.483776,-91.118699,Muscatine County
859,43.083746,-95.625624,O'Brien County
860,43.378542,-95.633788,Osceola County
861,40.73909,-95.14429,Page County
862,43.075337,-94.669055,Palo Alto County
863,42.737585,-96.215864,Plymouth County
864,42.734033,-94.678279,Pocahontas County
865,41.684816,-93.568971,Polk County
866,41.340184,-95.544905,Pottawattamie County
867,41.684526,-92.522882,Poweshiek County
868,40.735334,-94.244251,Ringgold County
869,42.387526,-95.105224,Sac County
870,41.642079,-90.622289,Scott County
871,41.679014,-95.308917,Shelby County
872,43.082646,-96.17801,Sioux County
873,42.037538,-93.466093,Story County
874,42.074848,-92.529411,Tama County
875,40.737949,-94.697108,Taylor County
876,41.02855,-94.245091,Union County
877,40.754117,-91.952943,Van Buren County
878,41.031275,-92.409466,Wapello County
879,41.332446,-93.568751,Warren County
880,41.329401,-91.725052,Washington County
881,40.739983,-93.332613,Wayne County
882,42.433579,-94.175831,Webster County
883,43.378124,-93.743488,Winnebago County
884,43.292989,-91.850788,Winneshiek County
885,42.39322,-96.053296,Woodbury County
886,43.373491,-93.248533,Worth County
887,42.733007,-93.734735,Wright County
888,37.884228,-95.300945,Allen County
889,38.215114,-95.292046,Anderson County
890,39.532544,-95.313397,Atchison County
891,37.222906,-98.685052,Barber County
892,38.481239,-98.767837,Barton County
893,37.8561,-94.850928,Bourbon County
894,39.825931,-95.569905,Brown County
895,37.773649,-96.83884,Butler County
896,38.299475,-96.594029,Chase County
897,37.154259,-96.245396,Chautauqua County
898,37.169392,-94.845698,Cherokee County
899,39.789917,-101.727325,Cheyenne County
900,37.233831,-99.813869,Clark County
901,39.344964,-97.168853,Clay County
902,39.487329,-97.64139,Cloud County
903,38.23645,-95.729137,Coffey County
904,37.181442,-99.251293,Comanche County
905,37.234507,-96.837247,Cowley County
906,37.505821,-94.853897,Crawford County
907,39.783542,-100.459708,Decatur County
908,38.867735,-97.157943,Dickinson County
909,39.788502,-95.147225,Doniphan County
910,38.896417,-95.290947,Douglas County
911,37.883595,-99.304746,Edwards County
912,37.456026,-96.244642,Elk County
913,38.914597,-99.317313,Ellis County
914,38.700845,-98.205355,Ellsworth County
915,38.049808,-100.739967,Finney County
916,37.688416,-99.884748,Ford County
917,38.558019,-95.278962,Franklin County
918,39.002139,-96.7681,Geary County
919,38.917239,-100.48736,Gove County
920,39.354972,-99.879894,Graham County
921,37.547537,-101.299362,Grant County
922,37.744513,-100.451716,Gray County
923,38.480404,-101.80597,Greeley County
924,37.879347,-96.241732,Greenwood County
925,37.995244,-101.793689,Hamilton County
926,37.188184,-98.06659,Harper County
927,38.050144,-97.436706,Harvey County
928,37.554979,-100.879952,Haskell County
929,38.087493,-99.898407,Hodgeman County
930,39.411145,-95.794485,Jackson County
931,39.239644,-95.375314,Jefferson County
932,39.777002,-98.222618,Jewell County
933,38.883907,-94.82233,Johnson County
934,37.994461,-101.308136,Kearny County
935,37.552951,-98.144529,Kingman County
936,37.561231,-99.286539,Kiowa County
937,37.191468,-95.297473,Labette County
938,38.481286,-100.466185,Lane County
939,39.189511,-95.038977,Leavenworth County
940,39.04728,-98.214284,Lincoln County
941,38.216549,-94.844932,Linn County
942,38.91327,-101.157402,Logan County
943,38.455403,-96.161641,Lyon County
944,38.395812,-97.647489,McPherson County
945,38.359647,-97.102771,Marion County
946,39.782709,-96.521243,Marshall County
947,37.243886,-100.360094,Meade County
948,38.566772,-94.832963,Miami County
949,39.393026,-98.207362,Mitchell County
950,37.189537,-95.742403,Montgomery County
951,38.688204,-96.651448,Morris County
952,37.185249,-101.809516,Morton County
953,39.791043,-96.005381,Nemaha County
954,37.564283,-95.315683,Neosho County
955,38.480437,-99.908745,Ness County
956,39.783867,-99.899235,Norton County
957,38.650215,-95.708255,Osage County
958,39.348261,-98.767942,Osborne County
959,39.137963,-97.654802,Ottawa County
960,38.181477,-99.234772,Pawnee County
961,39.784506,-99.34215,Phillips County
962,39.382187,-96.337113,Pottawatomie County
963,37.647594,-98.74012,Pratt County
964,39.786198,-101.076738,Rawlins County
965,37.948185,-98.078346,Reno County
966,39.828906,-97.650883,Republic County
967,38.347178,-98.201415,Rice County
968,39.291211,-96.727489,Riley County
969,39.346006,-99.324492,Rooks County
970,38.523592,-99.309183,Rush County
971,38.91604,-98.770949,Russell County
972,38.786327,-97.650153,Saline County
973,38.481877,-100.90636,Scott County
974,37.681045,-97.461054,Sedgwick County
975,37.18096,-100.855257,Seward County
976,39.041805,-95.755664,Shawnee County
977,39.350547,-100.441228,Sheridan County
978,39.351352,-101.719859,Sherman County
979,39.78466,-98.785429,Smith County
980,38.03563,-98.719889,Stafford County
981,37.565932,-101.789383,Stanton County
982,37.201697,-101.317265,Stevens County
983,37.236662,-97.493352,Sumner County
984,39.357713,-101.083386,Thomas County
985,38.921302,-99.865423,Trego County
986,38.955154,-96.201262,Wabaunsee County
987,38.926626,-101.771103,Wallace County
988,39.776714,-97.095611,Washington County
989,38.481922,-101.347434,Wichita County
990,37.558515,-95.745175,Wilson County
991,37.888193,-95.758469,Woodson County
992,39.115384,-94.763087,Wyandotte County
993,37.105559,-85.28138,Adair County
994,36.75077,-86.192458,Allen County
995,38.005396,-84.986417,Anderson County
996,37.051323,-89.010367,Ballard County
997,36.962805,-85.932108,Barren County
998,38.152249,-83.737641,Bath County
999,36.72268,-83.681039,Bell County
1000,38.974595,-84.731431,Boone County
1001,38.202562,-84.20986,Bourbon County
1002,38.360004,-82.681406,Boyd County
1003,37.618104,-84.868352,Boyle County
1004,38.680365,-84.115235,Bracken County
1005,37.517807,-83.317158,Breathitt County
1006,37.777988,-86.432919,Breckinridge County
1007,37.969945,-85.702636,Bullitt County
1008,37.207013,-86.682471,Butler County
1009,37.148642,-87.870509,Caldwell County
1010,36.620978,-88.274086,Calloway County
1011,38.946981,-84.379583,Campbell County
1012,36.857726,-88.975757,Carlisle County
1013,38.668394,-85.124024,Carroll County
1014,38.309549,-83.048796,Carter County
1015,37.321962,-84.92822,Casey County
1016,36.892059,-87.492986,Christian County
1017,37.970314,-84.145115,Clark County
1018,37.157264,-83.718524,Clay County
1019,36.727258,-85.136098,Clinton County
1020,37.358149,-88.10501,Crittenden County
1021,36.784224,-85.393507,Cumberland County
1022,37.731671,-87.087139,Daviess County
1023,37.227514,-86.218015,Edmonson County
1024,38.115438,-83.097209,Elliott County
1025,37.692449,-83.963983,Estill County
1026,38.040676,-84.458274,Fayette County
1027,38.368431,-83.706152,Fleming County
1028,37.559878,-82.743361,Floyd County
1029,38.234919,-84.868786,Franklin County
1030,36.552511,-89.187659,Fulton County
1031,38.760103,-84.862153,Gallatin County
1032,37.630162,-84.545856,Garrard County
1033,38.64916,-84.625927,Grant County
1034,36.723344,-88.649897,Graves County
1035,37.458577,-86.344011,Grayson County
1036,37.275382,-85.578483,Green County
1037,38.563562,-82.93382,Greenup County
1038,37.843325,-86.792761,Hancock County
1039,37.695836,-85.963183,Hardin County
1040,36.859223,-83.221497,Harlan County
1041,38.444578,-84.334131,Harrison County
1042,37.32014,-85.880982,Hart County
1043,37.792542,-87.572577,Henderson County
1044,38.451383,-85.119647,Henry County
1045,36.675896,-88.972084,Hickman County
1046,37.31107,-87.542196,Hopkins County
1047,37.403458,-84.020576,Jackson County
1048,38.189532,-85.657624,Jefferson County
1049,37.873291,-84.58396,Jessamine County
1050,37.84926,-82.830639,Johnson County
1051,38.930503,-84.533438,Kenton County
1052,37.359724,-82.945724,Knott County
1053,36.887476,-83.85563,Knox County
1054,37.544462,-85.696841,Larue County
1055,37.113268,-84.119395,Laurel County
1056,38.074453,-82.73829,Lawrence County
1057,37.608116,-83.719248,Lee County
1058,37.087846,-83.388617,Leslie County
1059,37.118536,-82.861251,Letcher County
1060,38.552152,-83.376774,Lewis County
1061,37.457174,-84.658335,Lincoln County
1062,37.209517,-88.363426,Livingston County
1063,36.859607,-86.881288,Logan County
1064,37.023976,-88.083391,Lyon County
1065,37.054112,-88.712452,McCracken County
1066,36.731136,-84.491052,McCreary County
1067,37.526707,-87.265597,McLean County
1068,37.725511,-84.278362,Madison County
1069,37.698983,-83.069721,Magoffin County
1070,37.552604,-85.268959,Marion County
1071,36.882017,-88.332752,Marshall County
1072,37.796774,-82.506623,Martin County
1073,38.594137,-83.828125,Mason County
1074,37.967476,-86.200863,Meade County
1075,37.950665,-83.597515,Menifee County
1076,37.812085,-84.879694,Mercer County
1077,36.992515,-85.633598,Metcalfe County
1078,36.714077,-85.713508,Monroe County
1079,38.038109,-83.912416,Montgomery County
1080,37.92294,-83.258944,Morgan County
1081,37.213816,-87.134092,Muhlenberg County
1082,37.80312,-85.465931,Nelson County
1083,38.338031,-84.026223,Nicholas County
1084,37.477859,-86.844871,Ohio County
1085,38.400127,-85.456152,Oldham County
1086,38.499394,-84.84159,Owen County
1087,37.423622,-83.691637,Owsley County
1088,38.696284,-84.351944,Pendleton County
1089,37.241282,-83.217772,Perry County
1090,37.486031,-82.410913,Pike County
1091,37.800629,-83.820015,Powell County
1092,37.108303,-84.580175,Pulaski County
1093,38.513473,-84.06423,Robertson County
1094,37.36105,-84.314368,Rockcastle County
1095,38.204266,-83.428079,Rowan County
1096,36.990587,-85.05495,Russell County
1097,38.289883,-84.579378,Scott County
1098,38.239011,-85.228247,Shelby County
1099,36.740947,-86.581746,Simpson County
1100,38.025411,-85.317174,Spencer County
1101,37.36621,-85.328059,Taylor County
1102,36.840338,-87.183642,Todd County
1103,36.807681,-87.858652,Trigg County
1104,38.62004,-85.351208,Trimble County
1105,37.658029,-87.95165,Union County
1106,36.995634,-86.423579,Warren County
1107,37.754209,-85.175416,Washington County
1108,36.802011,-84.83044,Wayne County
1109,37.519463,-87.684794,Webster County
1110,36.758024,-84.144648,Whitley County
1111,37.743893,-83.49511,Wolfe County
1112,38.043103,-84.748855,Woodford County
1113,30.291497,-92.411037,Acadia Parish
1114,30.652744,-92.819605,Allen Parish
1115,30.206444,-90.912502,Ascension Parish
1116,29.898853,-91.052465,Assumption Parish
1117,31.088503,-91.983275,Avoyelles Parish
1118,30.645018,-93.340253,Beauregard Parish
1119,32.340952,-93.041151,Bienville Parish
1120,32.698481,-93.626561,Bossier Parish
1121,32.577195,-93.882423,Caddo Parish
1122,30.229559,-93.358015,Calcasieu Parish
1123,32.101219,-92.114231,Caldwell Parish
1124,29.871812,-93.164948,Cameron Parish
1125,31.666517,-91.846703,Catahoula Parish
1126,32.82716,-92.989728,Claiborne Parish
1127,31.469805,-91.626315,Concordia Parish
1128,32.059248,-93.740797,De Soto Parish
1129,30.54393,-91.093131,East Baton Rouge Parish
1130,32.73017,-91.234141,East Carroll Parish
1131,30.839784,-91.043434,East Feliciana Parish
1132,30.720693,-92.404086,Evangeline Parish
1133,32.139076,-91.672371,Franklin Parish
1134,31.597787,-92.561716,Grant Parish
1135,30.007127,-91.976784,Iberia Parish
1136,30.270628,-91.365848,Iberville Parish
1137,32.30429,-92.5617,Jackson Parish
1138,29.522281,-90.081001,Jefferson Parish
1139,30.269529,-92.816221,Jefferson Davis Parish
1140,30.206507,-92.06417,Lafayette Parish
1141,29.491992,-90.394849,Lafourche Parish
1142,31.680083,-92.161596,LaSalle Parish
1143,32.601823,-92.662303,Lincoln Parish
1144,30.440419,-90.727474,Livingston Parish
1145,32.341221,-91.235638,Madison Parish
1146,32.820008,-91.800399,Morehouse Parish
1147,31.732551,-93.082611,Natchitoches Parish
1148,30.05342,-89.934502,Orleans Parish
1149,32.480932,-92.151581,Ouachita Parish
1150,29.282447,-89.576068,Plaquemines Parish
1151,30.708319,-91.604621,Pointe Coupee Parish
1152,31.193204,-92.535953,Rapides Parish
1153,32.101213,-93.34905,Red River Parish
1154,32.413158,-91.748353,Richland Parish
1155,31.560402,-93.559579,Sabine Parish
1156,29.91811,-89.263494,St. Bernard Parish
1157,29.905722,-90.357855,St. Charles Parish
1158,30.822539,-90.708307,St. Helena Parish
1159,30.024777,-90.793956,St. James Parish
1160,30.144068,-90.49096,St. John the Baptist Parish
1161,30.583441,-91.989274,St. Landry Parish
1162,30.121433,-91.611481,St. Martin Parish
1163,29.629349,-91.463804,St. Mary Parish
1164,30.410022,-89.951962,St. Tammany Parish
1165,30.621531,-90.40663,Tangipahoa Parish
1166,32.001489,-91.342576,Tensas Parish
1167,29.33413,-90.843674,Terrebonne Parish
1168,32.829349,-92.37565,Union Parish
1169,29.789722,-92.291568,Vermilion Parish
1170,31.110563,-93.18152,Vernon Parish
1171,30.852144,-90.046253,Washington Parish
1172,32.732152,-93.339825,Webster Parish
1173,30.464052,-91.309808,West Baton Rouge Parish
1174,32.79248,-91.451998,West Carroll Parish
1175,30.872701,-91.421008,West Feliciana Parish
1176,31.941187,-92.641269,Winn Parish
1177,44.167681,-70.207435,Androscoggin County
1178,46.709193,-68.612409,Aroostook County
1179,43.808348,-70.330375,Cumberland County
1180,44.976724,-70.414935,Franklin County
1181,44.564906,-68.370703,Hancock County
1182,44.417012,-69.765764,Kennebec County
1183,44.042045,-69.038514,Knox County
1184,43.994781,-69.513624,Lincoln County
1185,44.4945,-70.734421,Oxford County
1186,45.409284,-68.666616,Penobscot County
1187,45.915639,-69.102231,Piscataquis County
1188,43.916845,-69.844227,Sagadahoc County
1189,45.503646,-69.95611,Somerset County
1190,44.505834,-69.138952,Waldo County
1191,44.967009,-67.609354,Washington County
1192,43.426019,-70.668425,York County
1193,39.612313,-78.703104,Allegany County
1194,38.99161,-76.560731,Anne Arundel County
1195,39.443167,-76.616569,Baltimore County
1196,38.522719,-76.529762,Calvert County
1197,38.871531,-75.831662,Caroline County
1198,39.563309,-77.015361,Carroll County
1199,39.562354,-75.941585,Cecil County
1200,38.472853,-77.015427,Charles County
1201,38.429196,-76.047433,Dorchester County
1202,39.470214,-77.397628,Frederick County
1203,39.547299,-79.274619,Garrett County
1204,39.537429,-76.299789,Harford County
1205,39.252264,-76.924406,Howard County
1206,39.241279,-76.125987,Kent County
1207,39.137381,-77.203063,Montgomery County
1208,38.829288,-76.84818,Prince George's County
1209,39.040693,-76.082405,Queen Anne's County
1210,38.220289,-76.530384,St. Mary's County
1211,38.07445,-75.853323,Somerset County
1212,38.748349,-76.178476,Talbot County
1213,39.603621,-77.814671,Washington County
1214,38.36737,-75.632083,Wicomico County
1215,38.222133,-75.309931,Worcester County
1216,39.300032,-76.610476,Baltimore city
1217,41.799014,-70.21188,Barnstable County
1218,42.371493,-73.217928,Berkshire County
1219,41.748588,-71.088894,Bristol County
1220,41.38097,-70.701499,Dukes County
1221,42.642708,-70.864909,Essex County
1222,42.584504,-72.591792,Franklin County
1223,42.136198,-72.635648,Hampden County
1224,42.339459,-72.663694,Hampshire County
1225,42.481718,-71.394916,Middlesex County
1226,41.305878,-70.14191,Nantucket County
1227,42.171739,-71.181111,Norfolk County
1228,41.987196,-70.741942,Plymouth County
1229,42.338551,-71.018253,Suffolk County
1230,42.311693,-71.940282,Worcester County
1231,44.682535,-82.834078,Alcona County
1232,47.080077,-86.564108,Alger County
1233,42.595787,-86.634745,Allegan County
1234,44.894954,-83.426574,Alpena County
1235,45.005455,-85.175639,Antrim County
1236,44.036833,-83.740675,Arenac County
1237,46.695859,-88.36181,Baraga County
1238,42.582811,-85.31455,Barry County
1239,43.699711,-83.978701,Bay County
1240,44.648621,-86.494326,Benzie County
1241,41.791382,-86.742543,Berrien County
1242,41.918455,-85.066885,Branch County
1243,42.24299,-85.012385,Calhoun County
1244,41.917243,-86.000142,Cass County
1245,45.513164,-85.450392,Charlevoix County
1246,45.476121,-84.495273,Cheboygan County
1247,46.321819,-84.52063,Chippewa County
1248,43.991137,-84.838325,Clare County
1249,42.950455,-84.591695,Clinton County
1250,44.680175,-84.611343,Crawford County
1251,45.805229,-86.901938,Delta County
1252,46.012825,-87.866123,Dickinson County
1253,42.58953,-84.84645,Eaton County
1254,45.590094,-84.986822,Emmet County
1255,43.021077,-83.706372,Genesee County
1256,43.98975,-84.389816,Gladwin County
1257,46.461513,-89.806863,Gogebic County
1258,44.718688,-85.553848,Grand Traverse County
1259,43.292326,-84.60469,Gratiot County
1260,41.927461,-84.637479,Hillsdale County
1261,46.998432,-88.651909,Houghton County
1262,43.907616,-82.857045,Huron County
1263,42.603534,-84.373811,Ingham County
1264,42.94465,-85.073766,Ionia County
1265,44.329482,-82.849444,Iosco County
1266,46.170254,-88.540526,Iron County
1267,43.645233,-84.839424,Isabella County
1268,42.248474,-84.420868,Jackson County
1269,42.246266,-85.532854,Kalamazoo County
1270,44.678881,-85.088992,Kalkaska County
1271,43.032497,-85.547446,Kent County
1272,47.681974,-88.148797,Keweenaw County
1273,43.995187,-85.8114,Lake County
1274,43.088633,-83.224325,Lapeer County
1275,45.146182,-86.051574,Leelanau County
1276,41.896022,-84.074356,Lenawee County
1277,42.602532,-83.911718,Livingston County
1278,46.940602,-85.582368,Luce County
1279,46.167868,-85.303762,Mackinac County
1280,42.671553,-82.911456,Macomb County
1281,44.350385,-86.602967,Manistee County
1282,46.656596,-87.584028,Marquette County
1283,43.996636,-86.750814,Mason County
1284,43.635295,-85.332751,Mecosta County
1285,45.536207,-87.501811,Menominee County
1286,43.648203,-84.379414,Midland County
1287,44.325424,-85.085471,Missaukee County
1288,41.916097,-83.487106,Monroe County
1289,43.312782,-85.149468,Montcalm County
1290,45.024134,-84.130107,Montmorency County
1291,43.289258,-86.751892,Muskegon County
1292,43.562712,-85.791372,Newaygo County
1293,42.660452,-83.38421,Oakland County
1294,43.647255,-86.807575,Oceana County
1295,44.33328,-84.128073,Ogemaw County
1296,47.216602,-89.500463,Ontonagon County
1297,43.997552,-85.322283,Osceola County
1298,44.687257,-84.126905,Oscoda County
1299,45.021787,-84.576603,Otsego County
1300,42.942461,-86.654946,Ottawa County
1301,45.489515,-83.384019,Presque Isle County
1302,44.339517,-84.611271,Roscommon County
1303,43.328267,-84.05541,Saginaw County
1304,42.928803,-82.668913,St. Clair County
1305,41.911488,-85.52287,St. Joseph County
1306,43.449155,-82.642815,Sanilac County
1307,46.021122,-86.197029,Schoolcraft County
1308,42.951545,-84.146352,Shiawassee County
1309,43.487902,-83.436618,Tuscola County
1310,42.28215,-86.306076,Van Buren County
1311,42.252217,-83.843423,Washtenaw County
1312,42.284664,-83.261953,Wayne County
1313,44.331375,-85.570046,Wexford County
1314,46.602446,-93.41976,Aitkin County
1315,45.27411,-93.242723,Anoka County
1316,46.937629,-95.741757,Becker County
1317,47.879508,-95.00505,Beltrami County
1318,45.701225,-94.00144,Benton County
1319,45.419925,-96.402226,Big Stone County
1320,44.03371,-94.064012,Blue Earth County
1321,44.246541,-94.733647,Brown County
1322,46.603818,-92.671044,Carlton County
1323,44.82132,-93.800091,Carver County
1324,46.951745,-94.333705,Cass County
1325,45.028625,-95.564108,Chippewa County
1326,45.505444,-92.903849,Chisago County
1327,46.898377,-96.494901,Clay County
1328,47.575873,-95.371117,Clearwater County
1329,47.538569,-90.290189,Cook County
1330,44.010639,-95.183152,Cottonwood County
1331,46.491653,-94.070718,Crow Wing County
1332,44.670893,-93.062481,Dakota County
1333,44.020706,-92.869353,Dodge County
1334,45.936829,-95.462156,Douglas County
1335,43.676522,-93.947234,Faribault County
1336,43.679187,-92.093937,Fillmore County
1337,43.674202,-93.350289,Freeborn County
1338,44.406178,-92.716,Goodhue County
1339,45.930743,-96.010699,Grant County
1340,45.006121,-93.475228,Hennepin County
1341,43.66699,-91.501556,Houston County
1342,47.095551,-94.91329,Hubbard County
1343,45.562431,-93.296339,Isanti County
1344,47.490817,-93.611102,Itasca County
1345,43.671111,-95.149731,Jackson County
1346,45.94776,-93.297788,Kanabec County
1347,45.152714,-95.004981,Kandiyohi County
1348,48.77604,-96.780349,Kittson County
1349,48.245489,-93.782842,Koochiching County
1350,44.999856,-96.176836,Lac qui Parle County
1351,47.517111,-91.411704,Lake County
1352,48.7681,-94.904633,Lake of the Woods County
1353,44.373424,-93.730143,Le Sueur County
1354,44.408238,-96.272032,Lincoln County
1355,44.409195,-95.847268,Lyon County
1356,44.821657,-94.272323,McLeod County
1357,47.328387,-95.811089,Mahnomen County
1358,48.362728,-96.357761,Marshall County
1359,43.677118,-94.537252,Martin County
1360,45.123155,-94.527346,Meeker County
1361,45.929043,-93.632996,Mille Lacs County
1362,46.020484,-94.266619,Morrison County
1363,43.666249,-92.759514,Mower County
1364,44.015594,-95.761581,Murray County
1365,44.35882,-94.245684,Nicollet County
1366,43.677686,-95.763132,Nobles County
1367,47.329453,-96.463776,Norman County
1368,43.999494,-92.410108,Olmsted County
1369,46.405727,-95.714581,Otter Tail County
1370,48.069247,-96.037725,Pennington County
1371,46.10094,-92.763094,Pine County
1372,44.015361,-96.257015,Pipestone County
1373,47.774254,-96.400027,Polk County
1374,45.589623,-95.446705,Pope County
1375,45.015204,-93.099965,Ramsey County
1376,47.865487,-96.08718,Red Lake County
1377,44.403536,-95.254241,Redwood County
1378,44.723697,-94.955617,Renville County
1379,44.350734,-93.298505,Rice County
1380,43.669587,-96.263238,Rock County
1381,48.761068,-95.821504,Roseau County
1382,47.578635,-92.51457,St. Louis County
1383,44.651805,-93.533731,Scott County
1384,45.453176,-93.76913,Sherburne County
1385,44.575734,-94.230123,Sibley County
1386,45.555235,-94.610482,Stearns County
1387,44.015261,-93.220453,Steele County
1388,45.593461,-95.992315,Stevens County
1389,45.27581,-95.690124,Swift County
1390,46.066569,-94.900576,Todd County
1391,45.769935,-96.474832,Traverse County
1392,44.289693,-92.23334,Wabasha County
1393,46.586986,-94.988608,Wadena County
1394,44.01846,-93.589844,Waseca County
1395,45.037929,-92.890117,Washington County
1396,43.978109,-94.613798,Watonwan County
1397,46.362335,-96.476657,Wilkin County
1398,43.982268,-91.776708,Winona County
1399,45.175091,-93.966396,Wright County
1400,44.715736,-95.862756,Yellow Medicine County
1401,31.486223,-91.351794,Adams County
1402,34.886569,-88.581109,Alcorn County
1403,31.203933,-90.795542,Amite County
1404,33.09047,-89.588622,Attala County
1405,34.810518,-89.200285,Benton County
1406,33.799139,-90.88412,Bolivar County
1407,33.936634,-89.337114,Calhoun County
1408,33.440795,-89.918887,Carroll County
1409,33.933277,-88.947558,Chickasaw County
1410,33.345964,-89.251332,Choctaw County
1411,31.97281,-90.915424,Claiborne County
1412,32.045374,-88.687976,Clarke County
1413,33.65967,-88.782468,Clay County
1414,34.22867,-90.603165,Coahoma County
1415,31.866915,-90.448758,Copiah County
1416,31.633331,-89.548897,Covington County
1417,34.874266,-89.99324,DeSoto County
1418,31.18858,-89.259447,Forrest County
1419,31.477773,-90.895457,Franklin County
1420,30.855431,-88.642268,George County
1421,31.212845,-88.634811,Greene County
1422,33.770031,-89.80274,Grenada County
1423,30.391641,-89.482791,Hancock County
1424,30.416536,-89.083376,Harrison County
1425,32.267788,-90.466017,Hinds County
1426,33.125942,-90.091197,Holmes County
1427,33.130996,-90.523421,Humphreys County
1428,32.755539,-91.003535,Issaquena County
1429,34.281075,-88.363127,Itawamba County
1430,30.456005,-88.625101,Jackson County
1431,32.016989,-89.11943,Jasper County
1432,31.733633,-91.043878,Jefferson County
1433,31.564808,-89.827086,Jefferson Davis County
1434,31.616601,-89.168532,Jones County
1435,32.750136,-88.625631,Kemper County
1436,34.349298,-89.485903,Lafayette County
1437,31.197586,-89.506369,Lamar County
1438,32.403998,-88.660449,Lauderdale County
1439,31.550009,-90.10753,Lawrence County
1440,32.76063,-89.52225,Leake County
1441,34.29237,-88.682439,Lee County
1442,33.54979,-90.294934,Leflore County
1443,31.535216,-90.453566,Lincoln County
1444,33.471424,-88.439723,Lowndes County
1445,32.63437,-90.03416,Madison County
1446,31.230167,-89.821712,Marion County
1447,34.76619,-89.504231,Marshall County
1448,33.89003,-88.485038,Monroe County
1449,33.500714,-89.639625,Montgomery County
1450,32.752518,-89.119274,Neshoba County
1451,32.40197,-89.118412,Newton County
1452,33.106508,-88.566004,Noxubee County
1453,33.422313,-88.876151,Oktibbeha County
1454,34.365205,-89.963065,Panola County
1455,30.774793,-89.586904,Pearl River County
1456,31.169307,-88.988755,Perry County
1457,31.177516,-90.397728,Pike County
1458,34.227081,-89.037239,Pontotoc County
1459,34.620566,-88.522184,Prentiss County
1460,34.252833,-90.290171,Quitman County
1461,32.267123,-89.946063,Rankin County
1462,32.427127,-89.533209,Scott County
1463,32.892395,-90.827613,Sharkey County
1464,31.902505,-89.917709,Simpson County
1465,32.019029,-89.494877,Smith County
1466,30.790184,-89.112297,Stone County
1467,33.605529,-90.59509,Sunflower County
1468,33.954527,-90.172245,Tallahatchie County
1469,34.649553,-89.943105,Tate County
1470,34.763618,-88.918819,Tippah County
1471,34.737697,-88.236064,Tishomingo County
1472,34.652201,-90.37177,Tunica County
1473,34.489533,-89.002339,Union County
1474,31.164492,-90.103431,Walthall County
1475,32.356095,-90.852384,Warren County
1476,33.273174,-90.944446,Washington County
1477,31.642503,-88.678214,Wayne County
1478,33.612048,-89.283836,Webster County
1479,31.161091,-91.324617,Wilkinson County
1480,33.078724,-89.037391,Winston County
1481,34.030666,-89.703807,Yalobusha County
1482,32.765675,-90.387928,Yazoo County
1483,40.190666,-92.603592,Adair County
1484,39.988863,-94.803551,Andrew County
1485,40.431846,-95.437555,Atchison County
1486,39.21448,-91.843415,Audrain County
1487,36.699376,-93.834334,Barry County
1488,37.500799,-94.344089,Barton County
1489,38.257217,-94.339246,Bates County
1490,38.301036,-93.287942,Benton County
1491,37.318346,-90.024604,Bollinger County
1492,38.989861,-92.310202,Boone County
1493,39.660369,-94.808173,Buchanan County
1494,36.71518,-90.40313,Butler County
1495,39.658998,-93.979179,Caldwell County
1496,38.835547,-91.923446,Callaway County
1497,38.026527,-92.765327,Camden County
1498,37.384141,-89.685658,Cape Girardeau County
1499,39.427375,-93.500227,Carroll County
1500,36.944858,-90.945705,Carter County
1501,38.646474,-94.354547,Cass County
1502,37.733655,-93.850014,Cedar County
1503,39.517968,-92.96162,Chariton County
1504,36.969739,-93.187614,Christian County
1505,40.407275,-91.729472,Clark County
1506,39.315551,-94.421502,Clay County
1507,39.608723,-94.395803,Clinton County
1508,38.503233,-92.280027,Cole County
1509,38.845386,-92.812323,Cooper County
1510,37.96656,-91.313933,Crawford County
1511,37.43235,-93.854878,Dade County
1512,37.683583,-93.033815,Dallas County
1513,39.962839,-93.970053,Daviess County
1514,39.894665,-94.40719,DeKalb County
1515,37.603072,-91.489717,Dent County
1516,36.946517,-92.515892,Douglas County
1517,36.306905,-90.065394,Dunklin County
1518,38.413003,-91.072832,Franklin County
1519,38.441183,-91.50578,Gasconade County
1520,40.208127,-94.405321,Gentry County
1521,37.258196,-93.340641,Greene County
1522,40.112541,-93.565054,Grundy County
1523,40.34562,-93.992582,Harrison County
1524,38.386491,-93.792628,Henry County
1525,37.9367,-93.322834,Hickory County
1526,40.095724,-95.219072,Holt County
1527,39.143365,-92.695926,Howard County
1528,36.774369,-91.887368,Howell County
1529,37.594364,-90.984682,Iron County
1530,39.005336,-94.343165,Jackson County
1531,37.205197,-94.337259,Jasper County
1532,38.257664,-90.54362,Jefferson County
1533,38.741528,-93.811863,Johnson County
1534,40.136856,-92.146835,Knox County
1535,37.659698,-92.594843,Laclede County
1536,39.068705,-93.802639,Lafayette County
1537,37.10659,-93.830551,Lawrence County
1538,40.084559,-91.728803,Lewis County
1539,39.062255,-90.962916,Lincoln County
1540,39.86444,-93.108019,Linn County
1541,39.778587,-93.548201,Livingston County
1542,36.630218,-94.343956,McDonald County
1543,39.829795,-92.56434,Macon County
1544,37.474481,-90.343413,Madison County
1545,38.162615,-91.923601,Maries County
1546,39.807538,-91.635379,Marion County
1547,40.421413,-93.567631,Mercer County
1548,38.21668,-92.429876,Miller County
1549,36.826264,-89.295929,Mississippi County
1550,38.633037,-92.583642,Moniteau County
1551,39.49827,-92.006458,Monroe County
1552,38.935184,-91.465427,Montgomery County
1553,38.420807,-92.874835,Morgan County
1554,36.594261,-89.655948,New Madrid County
1555,36.908364,-94.335021,Newton County
1556,40.361136,-94.883146,Nodaway County
1557,36.68531,-91.401827,Oregon County
1558,38.464253,-91.859504,Osage County
1559,36.64959,-92.458549,Ozark County
1560,36.209916,-89.785942,Pemiscot County
1561,37.71113,-89.802125,Perry County
1562,38.727367,-93.285207,Pettis County
1563,37.866326,-91.790349,Phelps County
1564,39.339959,-91.171607,Pike County
1565,39.378696,-94.761472,Platte County
1566,37.616761,-93.400817,Polk County
1567,37.824835,-92.207022,Pulaski County
1568,40.478606,-93.014531,Putnam County
1569,39.553455,-91.524787,Ralls County
1570,39.439249,-92.492959,Randolph County
1571,39.308401,-93.995746,Ray County
1572,37.366464,-90.972282,Reynolds County
1573,36.648902,-90.86706,Ripley County
1574,38.781102,-90.674915,St. Charles County
1575,38.04223,-93.77656,St. Clair County
1576,37.885845,-90.161531,Ste. Genevieve County
1577,37.810707,-90.473868,St. Francois County
1578,38.640702,-90.445954,St. Louis County
1579,39.13584,-93.204164,Saline County
1580,40.469361,-92.519016,Schuyler County
1581,40.447686,-92.142824,Scotland County
1582,37.047793,-89.568098,Scott County
1583,37.152498,-91.391328,Shannon County
1584,39.797531,-92.088719,Shelby County
1585,36.851557,-89.947481,Stoddard County
1586,36.751004,-93.473701,Stone County
1587,40.209587,-93.109783,Sullivan County
1588,36.649827,-93.042819,Taney County
1589,37.314257,-91.964478,Texas County
1590,37.850196,-94.341597,Vernon County
1591,38.761902,-91.159306,Warren County
1592,37.942611,-90.897018,Washington County
1593,37.111074,-90.453931,Wayne County
1594,37.280804,-92.87608,Webster County
1595,40.480193,-94.418748,Worth County
1596,37.267636,-92.48001,Wright County
1597,38.635699,-90.244582,St. Louis city
1598,45.133863,-112.892869,Beaverhead County
1599,45.407869,-107.518163,Big Horn County
1600,48.428282,-108.967648,Blaine County
1601,46.329849,-111.497873,Broadwater County
1602,45.224468,-109.028554,Carbon County
1603,45.516825,-104.515324,Carter County
1604,47.316575,-111.350262,Cascade County
1605,47.886834,-110.4362,Chouteau County
1606,46.261414,-105.550352,Custer County
1607,48.794429,-105.541739,Daniels County
1608,47.26613,-104.898271,Dawson County
1609,46.094672,-113.141624,Deer Lodge County
1610,46.318184,-104.405718,Fallon County
1611,47.225221,-109.232138,Fergus County
1612,48.314678,-114.054295,Flathead County
1613,45.518054,-111.163921,Gallatin County
1614,47.267184,-106.995991,Garfield County
1615,48.705671,-112.990502,Glacier County
1616,46.380624,-109.174586,Golden Valley County
1617,46.395955,-113.427356,Granite County
1618,48.631959,-110.106321,Hill County
1619,46.124232,-112.059428,Jefferson County
1620,47.032558,-110.30532,Judith Basin County
1621,47.642901,-114.083687,Lake County
1622,47.122105,-112.38289,Lewis and Clark County
1623,48.559654,-111.036924,Liberty County
1624,48.552385,-115.463185,Lincoln County
1625,47.629628,-105.757222,McCone County
1626,45.32529,-111.913791,Madison County
1627,46.5857,-110.92174,Meagher County
1628,47.151942,-115.065627,Mineral County
1629,47.027263,-113.892691,Missoula County
1630,46.505281,-108.439763,Musselshell County
1631,45.421429,-110.53276,Park County
1632,47.141917,-108.226575,Petroleum County
1633,48.250143,-107.928897,Phillips County
1634,48.228604,-112.220761,Pondera County
1635,45.408926,-105.555344,Powder River County
1636,46.844225,-112.9311,Powell County
1637,46.812384,-105.503994,Prairie County
1638,46.077744,-114.105795,Ravalli County
1639,47.785633,-104.563408,Richland County
1640,48.282747,-104.99517,Roosevelt County
1641,46.173233,-106.666746,Rosebud County
1642,47.756497,-115.180306,Sanders County
1643,48.705523,-104.533913,Sheridan County
1644,45.896232,-112.660071,Silver Bow County
1645,45.658545,-109.381576,Stillwater County
1646,45.811292,-109.944796,Sweet Grass County
1647,47.819035,-112.281725,Teton County
1648,48.645125,-111.733472,Toole County
1649,46.229441,-107.285772,Treasure County
1650,48.34985,-106.670424,Valley County
1651,46.497047,-109.857147,Wheatland County
1652,46.962966,-104.274518,Wibaux County
1653,45.936987,-108.276656,Yellowstone County
1654,40.520632,-98.500044,Adams County
1655,42.183225,-98.058037,Antelope County
1656,41.57193,-101.695917,Arthur County
1657,41.53975,-103.726263,Banner County
1658,41.931945,-99.996407,Blaine County
1659,41.703934,-98.070476,Boone County
1660,42.21038,-103.081779,Box Butte County
1661,42.894448,-98.773022,Boyd County
1662,42.359562,-99.92392,Brown County
1663,40.855226,-99.074983,Buffalo County
1664,41.854179,-96.337746,Burt County
1665,41.226072,-97.132039,Butler County
1666,40.909878,-96.140609,Cass County
1667,42.60456,-97.25687,Cedar County
1668,40.53039,-101.694192,Chase County
1669,42.571323,-101.047653,Cherry County
1670,41.214236,-103.011929,Cheyenne County
1671,40.523669,-98.050858,Clay County
1672,41.57496,-97.088945,Colfax County
1673,41.915865,-96.788517,Cuming County
1674,41.393893,-99.726866,Custer County
1675,42.391645,-96.561356,Dakota County
1676,42.711214,-103.134872,Dawes County
1677,40.867378,-99.815154,Dawson County
1678,41.111903,-102.332609,Deuel County
1679,42.48528,-96.855862,Dixon County
1680,41.577008,-96.645853,Dodge County
1681,41.297091,-96.154066,Douglas County
1682,40.180165,-101.681133,Dundy County
1683,40.52504,-97.596705,Fillmore County
1684,40.183203,-98.96208,Franklin County
1685,40.530947,-100.406683,Frontier County
1686,40.191865,-99.909663,Furnas County
1687,40.255234,-96.683453,Gage County
1688,41.633364,-102.302985,Garden County
1689,41.906868,-98.951231,Garfield County
1690,40.509095,-99.823206,Gosper County
1691,41.913957,-101.755965,Grant County
1692,41.567571,-98.530565,Greeley County
1693,40.866027,-98.502664,Hall County
1694,40.872817,-98.022329,Hamilton County
1695,40.178766,-99.403418,Harlan County
1696,40.537234,-101.047963,Hayes County
1697,40.176896,-101.044217,Hitchcock County
1698,42.459287,-98.784766,Holt County
1699,41.920317,-101.117324,Hooker County
1700,41.216851,-98.513342,Howard County
1701,40.175736,-97.143103,Jefferson County
1702,40.39501,-96.265367,Johnson County
1703,40.50912,-98.947602,Kearney County
1704,41.194245,-101.644449,Keith County
1705,42.87548,-99.718351,Keya Paha County
1706,41.199274,-103.703153,Kimball County
1707,42.634404,-97.891349,Knox County
1708,40.783547,-96.688658,Lancaster County
1709,41.050322,-100.744481,Lincoln County
1710,41.542155,-100.443665,Logan County
1711,41.903183,-99.509852,Loup County
1712,41.648414,-101.120851,McPherson County
1713,41.909929,-97.606856,Madison County
1714,41.16979,-98.031057,Merrick County
1715,41.732204,-102.990594,Morrill County
1716,41.402385,-97.991408,Nance County
1717,40.387389,-95.852721,Nemaha County
1718,40.176492,-98.046842,Nuckolls County
1719,40.637992,-96.131027,Otoe County
1720,40.13785,-96.245225,Pawnee County
1721,40.857646,-101.627468,Perkins County
1722,40.516365,-99.406557,Phelps County
1723,42.271413,-97.610992,Pierce County
1724,41.576866,-97.513467,Platte County
1725,41.187925,-97.570663,Polk County
1726,40.16942,-100.468576,Red Willow County
1727,40.123743,-95.718603,Richardson County
1728,42.394749,-99.420851,Rock County
1729,40.516802,-97.131755,Saline County
1730,41.115064,-96.109125,Sarpy County
1731,41.223386,-96.642093,Saunders County
1732,41.850331,-103.701549,Scotts Bluff County
1733,40.871944,-97.140383,Seward County
1734,42.512289,-102.36828,Sheridan County
1735,41.218743,-98.972849,Sherman County
1736,42.470668,-103.73217,Sioux County
1737,41.905045,-97.177109,Stanton County
1738,40.173845,-97.596263,Thayer County
1739,41.85573,-100.524703,Thomas County
1740,42.154061,-96.533943,Thurston County
1741,41.564094,-98.983484,Valley County
1742,41.533973,-96.224577,Washington County
1743,42.210746,-97.126243,Wayne County
1744,40.180646,-98.49859,Webster County
1745,41.922575,-98.520853,Wheeler County
1746,40.873056,-97.596742,York County
1747,39.53771,-118.264166,Churchill County
1748,36.214257,-115.013812,Clark County
1749,38.905129,-119.609019,Douglas County
1750,41.141133,-115.351424,Elko County
1751,37.778966,-117.632382,Esmeralda County
1752,39.977788,-116.272208,Eureka County
1753,41.407914,-118.127591,Humboldt County
1754,39.90021,-117.04724,Lander County
1755,37.634605,-114.863037,Lincoln County
1756,39.022213,-119.197425,Lyon County
1757,38.516647,-118.416279,Mineral County
1758,37.965864,-116.459011,Nye County
1759,40.439639,-118.409477,Pershing County
1760,39.438385,-119.524646,Storey County
1761,40.734015,-119.662272,Washoe County
1762,39.418234,-114.900605,White Pine County
1763,39.15306,-119.747379,Carson City
1764,43.519109,-71.425366,Belknap County
1765,43.867774,-71.20156,Carroll County
1766,42.92546,-72.248183,Cheshire County
1767,44.652548,-71.289431,Coos County
1768,43.926439,-71.842424,Grafton County
1769,42.911532,-71.723055,Hillsborough County
1770,43.299579,-71.680041,Merrimack County
1771,42.988664,-71.09908,Rockingham County
1772,43.293272,-71.035589,Strafford County
1773,43.361188,-72.222084,Sullivan County
1774,39.469355,-74.633759,Atlantic County
1775,40.959698,-74.074727,Bergen County
1776,39.875786,-74.663006,Burlington County
1777,39.802407,-74.961249,Camden County
1778,39.086141,-74.84771,Cape May County
1779,39.328434,-75.121628,Cumberland County
1780,40.7874,-74.246292,Essex County
1781,39.722875,-75.145679,Gloucester County
1782,40.731375,-74.078601,Hudson County
1783,40.565283,-74.911969,Hunterdon County
1784,40.282503,-74.703724,Mercer County
1785,40.439621,-74.40743,Middlesex County
1786,40.287048,-74.152446,Monmouth County
1787,40.858896,-74.547292,Morris County
1788,39.865669,-74.258864,Ocean County
1789,41.03789,-74.29828,Passaic County
1790,39.573828,-75.357356,Salem County
1791,40.565527,-74.619938,Somerset County
1792,41.137461,-74.691914,Sussex County
1793,40.659871,-74.308696,Union County
1794,40.853491,-75.009498,Warren County
1795,35.053628,-106.66908,Bernalillo County
1796,33.901858,-108.392088,Catron County
1797,33.361604,-104.469837,Chaves County
1798,34.928272,-107.99268,Cibola County
1799,36.612964,-104.64011,Colfax County
1800,34.572984,-103.346055,Curry County
1801,34.359273,-104.368696,De Baca County
1802,32.349919,-106.834968,Doa Ana County
1803,32.457835,-104.306434,Eddy County
1804,32.732087,-108.381504,Grant County
1805,34.869782,-104.784968,Guadalupe County
1806,35.85851,-103.847934,Harding County
1807,31.898052,-108.751929,Hidalgo County
1808,32.795687,-103.413271,Lea County
1809,33.740841,-105.449805,Lincoln County
1810,35.870047,-106.307968,Los Alamos County
1811,32.184523,-107.747191,Luna County
1812,35.583878,-108.253266,McKinley County
1813,35.982841,-104.921898,Mora County
1814,32.615599,-105.751308,Otero County
1815,35.107018,-103.548071,Quay County
1816,36.509669,-106.693983,Rio Arriba County
1817,34.021207,-103.483004,Roosevelt County
1818,35.685091,-106.883119,Sandoval County
1819,36.511624,-108.324578,San Juan County
1820,35.476859,-104.803519,San Miguel County
1821,35.51453,-105.963972,Santa Fe County
1822,33.119468,-107.188161,Sierra County
1823,33.991658,-106.939136,Socorro County
1824,36.576529,-105.637986,Taos County
1825,34.554977,-105.890553,Torrance County
1826,36.488085,-103.475723,Union County
1827,34.71684,-106.806582,Valencia County
1828,42.58824,-73.97401,Albany County
1829,42.247853,-78.026153,Allegany County
1830,40.848711,-73.852939,Bronx County
1831,42.161977,-75.830283,Broome County
1832,42.239099,-78.662332,Cattaraugus County
1833,43.008546,-76.574587,Cayuga County
1834,42.304216,-79.407595,Chautauqua County
1835,42.15528,-76.747179,Chemung County
1836,42.478024,-75.602241,Chenango County
1837,44.752712,-73.705643,Clinton County
1838,42.247729,-73.626806,Columbia County
1839,42.594039,-76.07624,Cortland County
1840,42.193986,-74.966728,Delaware County
1841,41.75477,-73.740041,Dutchess County
1842,42.752759,-78.778192,Erie County
1843,44.109601,-73.778431,Essex County
1844,44.594376,-74.31067,Franklin County
1845,43.115609,-74.423678,Fulton County
1846,43.00091,-78.192778,Genesee County
1847,42.28697,-74.149542,Greene County
1848,43.657879,-74.502456,Hamilton County
1849,43.407489,-75.011683,Herkimer County
1850,43.996389,-76.052968,Jefferson County
1851,40.635045,-73.95064,Kings County
1852,43.782681,-75.44414,Lewis County
1853,42.727485,-77.769779,Livingston County
1854,42.910026,-75.663575,Madison County
1855,43.464484,-77.664658,Monroe County
1856,42.900891,-74.435357,Montgomery County
1857,40.729612,-73.589414,Nassau County
1858,40.776642,-73.970187,New York County
1859,43.456731,-78.792142,Niagara County
1860,43.242727,-75.434282,Oneida County
1861,43.006516,-76.196134,Onondaga County
1862,42.856358,-77.303497,Ontario County
1863,41.40241,-74.306252,Orange County
1864,43.502287,-78.229726,Orleans County
1865,43.461443,-76.209262,Oswego County
1866,42.629776,-75.028841,Otsego County
1867,41.427907,-73.743861,Putnam County
1868,40.658566,-73.838017,Queens County
1869,42.710421,-73.513845,Rensselaer County
1870,40.561263,-74.1399,Richmond County
1871,41.154628,-74.024662,Rockland County
1872,44.488112,-75.074311,St. Lawrence County
1873,43.106135,-73.855387,Saratoga County
1874,42.817552,-74.043559,Schenectady County
1875,42.591294,-74.438172,Schoharie County
1876,42.419776,-76.938603,Schuyler County
1877,42.782294,-76.827088,Seneca County
1878,42.266725,-77.385525,Steuben County
1879,40.943554,-72.692218,Suffolk County
1880,41.719993,-74.771577,Sullivan County
1881,42.178057,-76.297456,Tioga County
1882,42.453006,-76.473483,Tompkins County
1883,41.947212,-74.265458,Ulster County
1884,43.555105,-73.838139,Warren County
1885,43.312377,-73.439428,Washington County
1886,43.458758,-77.063164,Wayne County
1887,41.15277,-73.745912,Westchester County
1888,42.701363,-78.228567,Wyoming County
1889,42.638237,-77.104324,Yates County
1890,36.043954,-79.400573,Alamance County
1891,35.920951,-81.177467,Alexander County
1892,36.489356,-81.132299,Alleghany County
1893,34.974972,-80.109763,Anson County
1894,36.443469,-81.499334,Ashe County
1895,36.07209,-81.920285,Avery County
1896,35.482313,-76.842014,Beaufort County
1897,36.059043,-76.962364,Bertie County
1898,34.591938,-78.539489,Bladen County
1899,34.038754,-78.227765,Brunswick County
1900,35.609371,-82.530423,Buncombe County
1901,35.746182,-81.70618,Burke County
1902,35.388346,-80.552728,Cabarrus County
1903,35.966395,-81.512541,Caldwell County
1904,36.342344,-76.162488,Camden County
1905,34.858343,-76.53586,Carteret County
1906,36.394298,-79.339609,Caswell County
1907,35.661883,-81.214906,Catawba County
1908,35.704994,-79.251454,Chatham County
1909,35.13717,-84.061419,Cherokee County
1910,36.128979,-76.602752,Chowan County
1911,35.052997,-83.752264,Clay County
1912,35.33463,-81.557114,Cleveland County
1913,34.261602,-78.639308,Columbus County
1914,35.116829,-77.08132,Craven County
1915,35.050192,-78.828719,Cumberland County
1916,36.372174,-75.941224,Currituck County
1917,35.606269,-75.767536,Dare County
1918,35.795131,-80.207107,Davidson County
1919,35.929355,-80.542552,Davie County
1920,34.934403,-77.933543,Duplin County
1921,36.033828,-78.878125,Durham County
1922,35.917077,-77.602742,Edgecombe County
1923,36.132466,-80.256961,Forsyth County
1924,36.088241,-78.28309,Franklin County
1925,35.293344,-81.177256,Gaston County
1926,36.442135,-76.702355,Gates County
1927,35.348364,-83.830915,Graham County
1928,36.299884,-78.657634,Granville County
1929,35.481959,-77.681688,Greene County
1930,36.079065,-79.788665,Guilford County
1931,36.251438,-77.644842,Halifax County
1932,35.368635,-78.87161,Harnett County
1933,35.558834,-82.981344,Haywood County
1934,35.336415,-82.479741,Henderson County
1935,36.363517,-76.981616,Hertford County
1936,35.017233,-79.241964,Hoke County
1937,35.408157,-76.153687,Hyde County
1938,35.806355,-80.874539,Iredell County
1939,35.281052,-83.119962,Jackson County
1940,35.513419,-78.367348,Johnston County
1941,35.032268,-77.356195,Jones County
1942,35.476336,-79.172117,Lee County
1943,35.240068,-77.63551,Lenoir County
1944,35.488491,-81.226892,Lincoln County
1945,35.682271,-82.048044,McDowell County
1946,35.152959,-83.421901,Macon County
1947,35.864207,-82.71263,Madison County
1948,35.847301,-77.119602,Martin County
1949,35.246862,-80.833832,Mecklenburg County
1950,36.013102,-82.163554,Mitchell County
1951,35.334415,-79.906602,Montgomery County
1952,35.308272,-79.492725,Moore County
1953,35.965945,-77.987555,Nash County
1954,34.183442,-77.864209,New Hanover County
1955,36.421774,-77.398352,Northampton County
1956,34.763109,-77.499469,Onslow County
1957,36.062526,-79.120034,Orange County
1958,35.147575,-76.665268,Pamlico County
1959,36.265199,-76.260691,Pasquotank County
1960,34.512556,-77.888106,Pender County
1961,36.180897,-76.403244,Perquimans County
1962,36.386336,-78.965644,Person County
1963,35.59249,-77.372739,Pitt County
1964,35.277901,-82.167621,Polk County
1965,35.709915,-79.806215,Randolph County
1966,35.004636,-79.755695,Richmond County
1967,34.63921,-79.100881,Robeson County
1968,36.381806,-79.782754,Rockingham County
1969,35.641355,-80.521721,Rowan County
1970,35.402747,-81.919582,Rutherford County
1971,34.989298,-78.371174,Sampson County
1972,34.840023,-79.477337,Scotland County
1973,35.310449,-80.254374,Stanly County
1974,36.393505,-80.266214,Stokes County
1975,36.415416,-80.686463,Surry County
1976,35.568849,-83.465614,Swain County
1977,35.210079,-82.816653,Transylvania County
1978,35.87042,-76.165345,Tyrrell County
1979,34.991817,-80.530435,Union County
1980,36.365481,-78.405434,Vance County
1981,35.789846,-78.650624,Wake County
1982,36.398105,-78.099899,Warren County
1983,35.844713,-76.572291,Washington County
1984,36.235368,-81.709888,Watauga County
1985,35.35419,-78.00867,Wayne County
1986,36.208883,-81.166095,Wilkes County
1987,35.700357,-77.921598,Wilson County
1988,36.158765,-80.665164,Yadkin County
1989,35.889326,-82.303954,Yancey County
1990,46.096815,-102.533198,Adams County
1991,46.94255,-98.070195,Barnes County
1992,48.071743,-99.351152,Benson County
1993,47.007044,-103.364016,Billings County
1994,48.794412,-100.831257,Bottineau County
1995,46.110144,-103.505943,Bowman County
1996,48.786453,-102.520087,Burke County
1997,46.971843,-100.462001,Burleigh County
1998,46.927003,-97.252375,Cass County
1999,48.768439,-98.46379,Cavalier County
2000,46.107756,-98.496518,Dickey County
2001,48.814754,-103.509326,Divide County
2002,47.354557,-102.612322,Dunn County
2003,47.723436,-98.900474,Eddy County
2004,46.284255,-100.237842,Emmons County
2005,47.471431,-98.872876,Foster County
2006,46.938924,-103.844612,Golden Valley County
2007,47.926003,-97.450851,Grand Forks County
2008,46.357827,-101.639049,Grant County
2009,47.456334,-98.232286,Griggs County
2010,46.435704,-102.454238,Hettinger County
2011,46.938273,-99.731198,Kidder County
2012,46.464195,-98.526057,LaMoure County
2013,46.469278,-99.504585,Logan County
2014,48.233842,-100.633267,McHenry County
2015,46.108682,-99.416487,McIntosh County
2016,47.742475,-103.403215,McKenzie County
2017,47.530459,-101.353087,McLean County
2018,47.307147,-101.833328,Mercer County
2019,46.710819,-101.298265,Morton County
2020,48.210073,-102.364895,Mountrail County
2021,47.918667,-98.204428,Nelson County
2022,47.118079,-101.33142,Oliver County
2023,48.766896,-97.545405,Pembina County
2024,48.238883,-99.966497,Pierce County
2025,48.266163,-98.739031,Ramsey County
2026,46.449276,-97.647554,Ransom County
2027,48.712781,-101.658152,Renville County
2028,46.265219,-96.93796,Richland County
2029,48.768271,-99.840463,Rolette County
2030,46.108209,-97.63004,Sargent County
2031,47.581359,-100.330986,Sheridan County
2032,46.110618,-101.061284,Sioux County
2033,46.445834,-103.462462,Slope County
2034,46.817031,-102.662026,Stark County
2035,47.451062,-97.71892,Steele County
2036,46.972223,-98.956123,Stutsman County
2037,48.682183,-99.248158,Towner County
2038,47.446215,-97.164754,Traill County
2039,48.376979,-97.72223,Walsh County
2040,48.216686,-101.540537,Ward County
2041,47.580851,-99.682213,Wells County
2042,48.355765,-103.501333,Williams County
2043,38.834468,-83.478082,Adams County
2044,40.771627,-84.106103,Allen County
2045,40.843273,-82.270127,Ashland County
2046,41.906637,-80.745592,Ashtabula County
2047,39.332604,-82.045844,Athens County
2048,40.561309,-84.224018,Auglaize County
2049,40.017682,-80.967727,Belmont County
2050,38.931377,-83.866772,Brown County
2051,39.439747,-84.565734,Butler County
2052,40.579884,-81.090787,Carroll County
2053,40.132775,-83.767604,Champaign County
2054,39.917032,-83.783676,Clark County
2055,39.052084,-84.149614,Clermont County
2056,39.430301,-83.795543,Clinton County
2057,40.770073,-80.778455,Columbiana County
2058,40.29671,-81.930109,Coshocton County
2059,40.848524,-82.924783,Crawford County
2060,41.760392,-81.724217,Cuyahoga County
2061,40.131542,-84.621248,Darke County
2062,41.321679,-84.486433,Defiance County
2063,40.278941,-83.007462,Delaware County
2064,41.554006,-82.525897,Erie County
2065,39.747694,-82.626685,Fairfield County
2066,39.555246,-83.461893,Fayette County
2067,39.969875,-83.009086,Franklin County
2068,41.597264,-84.124267,Fulton County
2069,38.817046,-82.301746,Gallia County
2070,41.499322,-81.173505,Geauga County
2071,39.687479,-83.894894,Greene County
2072,40.056665,-81.497875,Guernsey County
2073,39.196927,-84.544187,Hamilton County
2074,41.000471,-83.666034,Hancock County
2075,40.660415,-83.664077,Hardin County
2076,40.292318,-81.091565,Harrison County
2077,41.331584,-84.0689,Henry County
2078,39.184422,-83.601359,Highland County
2079,39.490342,-82.483447,Hocking County
2080,40.565597,-81.930001,Holmes County
2081,41.14508,-82.594641,Huron County
2082,39.013477,-82.614142,Jackson County
2083,40.399384,-80.763527,Jefferson County
2084,40.40362,-82.422393,Knox County
2085,41.924116,-81.392643,Lake County
2086,38.603866,-82.517186,Lawrence County
2087,40.091505,-82.483435,Licking County
2088,40.387553,-83.766343,Logan County
2089,41.438805,-82.179722,Lorain County
2090,41.682321,-83.468903,Lucas County
2091,39.896607,-83.400885,Madison County
2092,41.01088,-80.770396,Mahoning County
2093,40.588034,-83.168803,Marion County
2094,41.116174,-81.899764,Medina County
2095,39.089807,-82.028397,Meigs County
2096,40.535333,-84.632059,Mercer County
2097,40.053326,-84.228413,Miami County
2098,39.726253,-81.090983,Monroe County
2099,39.753736,-84.290591,Montgomery County
2100,39.624946,-81.861697,Morgan County
2101,40.525266,-82.797729,Morrow County
2102,39.966046,-81.943506,Muskingum County
2103,39.767232,-81.452493,Noble County
2104,41.545495,-83.012613,Ottawa County
2105,41.118948,-84.582125,Paulding County
2106,39.743187,-82.237952,Perry County
2107,39.648947,-83.052827,Pickaway County
2108,39.071341,-83.052911,Pike County
2109,41.16897,-81.196962,Portage County
2110,39.73881,-84.644758,Preble County
2111,41.024533,-84.129879,Putnam County
2112,40.774159,-82.542781,Richland County
2113,39.323897,-83.059536,Ross County
2114,41.355319,-83.142776,Sandusky County
2115,38.814889,-82.998675,Scioto County
2116,41.119992,-83.127547,Seneca County
2117,40.33668,-84.204142,Shelby County
2118,40.814131,-81.365667,Stark County
2119,41.121847,-81.534928,Summit County
2120,41.306374,-80.7704,Trumbull County
2121,40.44749,-81.471105,Tuscarawas County
2122,40.295901,-83.367042,Union County
2123,40.85552,-84.585775,Van Wert County
2124,39.252042,-82.485961,Vinton County
2125,39.425652,-84.169906,Warren County
2126,39.450676,-81.490636,Washington County
2127,40.829661,-81.887194,Wayne County
2128,41.564958,-84.584323,Williams County
2129,41.360183,-83.622682,Wood County
2130,40.839782,-83.313681,Wyandot County
2131,35.898043,-94.651026,Adair County
2132,36.729703,-98.323445,Alfalfa County
2133,34.392469,-96.036558,Atoka County
2134,36.748334,-100.483056,Beaver County
2135,35.270601,-99.690057,Beckham County
2136,35.877782,-98.428934,Blaine County
2137,33.964004,-96.264137,Bryan County
2138,35.16792,-98.381045,Caddo County
2139,35.543354,-97.979889,Canadian County
2140,34.251848,-97.287927,Carter County
2141,35.904367,-94.996796,Cherokee County
2142,34.027645,-95.554208,Choctaw County
2143,36.74839,-102.517698,Cimarron County
2144,35.206376,-97.323088,Cleveland County
2145,34.582861,-96.288039,Coal County
2146,34.662627,-98.476598,Comanche County
2147,34.290676,-98.373438,Cotton County
2148,36.76389,-95.201553,Craig County
2149,35.907732,-96.379793,Creek County
2150,35.645601,-98.997386,Custer County
2151,36.393375,-94.808217,Delaware County
2152,35.97796,-99.014385,Dewey County
2153,36.224258,-99.750139,Ellis County
2154,36.378273,-97.787729,Garfield County
2155,34.70935,-97.312723,Garvin County
2156,35.021058,-97.88689,Grady County
2157,36.788254,-97.788151,Grant County
2158,34.933853,-99.552968,Greer County
2159,34.745971,-99.844194,Harmon County
2160,36.80035,-99.662805,Harper County
2161,35.232295,-95.109576,Haskell County
2162,35.052934,-96.251183,Hughes County
2163,34.594006,-99.412235,Jackson County
2164,34.105082,-97.83889,Jefferson County
2165,34.313455,-96.654254,Johnston County
2166,36.814885,-97.143862,Kay County
2167,35.949436,-97.934557,Kingfisher County
2168,34.921489,-98.981617,Kiowa County
2169,34.875137,-95.272262,Latimer County
2170,34.897356,-94.695074,Le Flore County
2171,35.703117,-96.881392,Lincoln County
2172,35.914151,-97.450764,Logan County
2173,33.957804,-97.245093,Love County
2174,35.016436,-97.449803,McClain County
2175,34.117073,-94.766086,McCurtain County
2176,35.369108,-95.671787,McIntosh County
2177,36.313119,-98.542015,Major County
2178,34.027007,-96.770533,Marshall County
2179,36.303804,-95.235638,Mayes County
2180,34.485766,-97.071557,Murray County
2181,35.617551,-95.383911,Muskogee County
2182,36.384901,-97.236335,Noble County
2183,36.789615,-95.613312,Nowata County
2184,35.466804,-96.327762,Okfuskee County
2185,35.554611,-97.409401,Oklahoma County
2186,35.646879,-95.96458,Okmulgee County
2187,36.624299,-96.408112,Osage County
2188,36.835764,-94.802681,Ottawa County
2189,36.313704,-96.696669,Pawnee County
2190,36.079225,-96.975255,Payne County
2191,34.92554,-95.74813,Pittsburg County
2192,34.721445,-96.69197,Pontotoc County
2193,35.211393,-96.957007,Pottawatomie County
2194,34.377899,-95.408082,Pushmataha County
2195,35.708554,-99.741572,Roger Mills County
2196,36.377794,-95.601383,Rogers County
2197,35.158366,-96.602857,Seminole County
2198,35.502435,-94.750757,Sequoyah County
2199,34.481361,-97.855607,Stephens County
2200,36.746317,-101.483855,Texas County
2201,34.371085,-98.931701,Tillman County
2202,36.120318,-95.941813,Tulsa County
2203,35.963479,-95.514098,Wagoner County
2204,36.70438,-95.906155,Washington County
2205,35.289497,-98.991436,Washita County
2206,36.726984,-98.863649,Woods County
2207,36.425619,-99.273661,Woodward County
2208,44.703427,-117.691933,Baker County
2209,44.493882,-123.424664,Benton County
2210,45.160493,-122.195127,Clackamas County
2211,46.024509,-123.705034,Clatsop County
2212,45.941932,-123.081079,Columbia County
2213,43.18591,-124.094133,Coos County
2214,44.163054,-120.371585,Crook County
2215,42.466439,-124.210929,Curry County
2216,43.915118,-121.225575,Deschutes County
2217,43.286328,-123.154476,Douglas County
2218,45.43059,-120.319901,Gilliam County
2219,44.496326,-119.014057,Grant County
2220,43.064449,-118.987169,Harney County
2221,45.511775,-121.655976,Hood River County
2222,42.411628,-122.675685,Jackson County
2223,44.645151,-121.178632,Jefferson County
2224,42.386983,-123.571624,Josephine County
2225,42.683761,-121.646168,Klamath County
2226,42.788401,-120.38979,Lake County
2227,43.928329,-122.89769,Lane County
2228,44.641061,-123.911212,Lincoln County
2229,44.488898,-122.537208,Linn County
2230,43.188625,-117.603191,Malheur County
2231,44.900898,-122.57626,Marion County
2232,45.425496,-119.602311,Morrow County
2233,45.547711,-122.417363,Multnomah County
2234,44.900375,-123.398673,Polk County
2235,45.399216,-120.678512,Sherman County
2236,45.45589,-123.759299,Tillamook County
2237,45.5912,-118.73388,Umatilla County
2238,45.304081,-117.999149,Union County
2239,45.593753,-117.18558,Wallowa County
2240,45.164536,-121.165069,Wasco County
2241,45.553542,-123.097615,Washington County
2242,44.736415,-120.026861,Wheeler County
2243,45.247827,-123.316399,Yamhill County
2244,39.869471,-77.21773,Adams County
2245,40.469757,-79.980451,Allegheny County
2246,40.81238,-79.464129,Armstrong County
2247,40.68414,-80.350721,Beaver County
2248,39.998634,-78.494747,Bedford County
2249,40.413957,-75.92686,Berks County
2250,40.497922,-78.310636,Blair County
2251,41.791504,-76.502123,Bradford County
2252,40.336887,-75.10706,Bucks County
2253,40.913847,-79.918978,Butler County
2254,40.510222,-78.710478,Cambria County
2255,41.438291,-78.198323,Cameron County
2256,40.918367,-75.705039,Carbon County
2257,40.909128,-77.847877,Centre County
2258,39.974029,-75.749752,Chester County
2259,41.198159,-79.420369,Clarion County
2260,41.000249,-78.473749,Clearfield County
2261,41.262624,-77.69636,Clinton County
2262,41.045517,-76.40426,Columbia County
2263,41.687876,-80.107795,Crawford County
2264,40.164805,-77.263442,Cumberland County
2265,40.412565,-76.792634,Dauphin County
2266,39.916685,-75.398818,Delaware County
2267,41.427332,-78.653937,Elk County
2268,42.117952,-80.096386,Erie County
2269,39.918907,-79.640119,Fayette County
2270,41.513304,-79.249705,Forest County
2271,39.926772,-77.724521,Franklin County
2272,39.91075,-78.122617,Fulton County
2273,39.847707,-80.225655,Greene County
2274,40.422311,-77.968595,Huntingdon County
2275,40.651432,-79.087545,Indiana County
2276,41.138028,-79.012419,Jefferson County
2277,40.530673,-77.400438,Juniata County
2278,41.440284,-75.609666,Lackawanna County
2279,40.041992,-76.250198,Lancaster County
2280,40.992735,-80.334446,Lawrence County
2281,40.371559,-76.46487,Lebanon County
2282,40.614241,-75.590627,Lehigh County
2283,41.172787,-75.976035,Luzerne County
2284,41.343882,-77.055262,Lycoming County
2285,41.81459,-78.572463,McKean County
2286,41.300014,-80.252786,Mercer County
2287,40.601602,-77.651928,Mifflin County
2288,41.05624,-75.329065,Monroe County
2289,40.209999,-75.370201,Montgomery County
2290,41.029284,-76.665225,Montour County
2291,40.752791,-75.307447,Northampton County
2292,40.851524,-76.709877,Northumberland County
2293,40.39778,-77.266328,Perry County
2294,40.009376,-75.133346,Philadelphia County
2295,41.325949,-75.031514,Pike County
2296,41.748587,-77.894436,Potter County
2297,40.703682,-76.217788,Schuylkill County
2298,40.755407,-77.072929,Snyder County
2299,39.981297,-79.028486,Somerset County
2300,41.439285,-76.511717,Sullivan County
2301,41.819665,-75.800969,Susquehanna County
2302,41.766859,-77.257288,Tioga County
2303,40.962179,-77.055475,Union County
2304,41.400714,-79.765813,Venango County
2305,41.834298,-79.298182,Warren County
2306,40.200005,-80.252132,Washington County
2307,41.647007,-75.293193,Wayne County
2308,40.311068,-79.466688,Westmoreland County
2309,41.525173,-76.008731,Wyoming County
2310,39.921751,-76.728889,York County
2311,41.706831,-71.286637,Bristol County
2312,41.677331,-71.578786,Kent County
2313,41.502504,-71.283689,Newport County
2314,41.869768,-71.578625,Providence County
2315,41.396792,-71.620282,Washington County
2316,34.229041,-82.454058,Abbeville County
2317,33.550013,-81.632983,Aiken County
2318,32.979757,-81.363265,Allendale County
2319,34.521235,-82.638603,Anderson County
2320,33.203021,-81.053161,Bamberg County
2321,33.260552,-81.434228,Barnwell County
2322,32.358112,-80.689422,Beaufort County
2323,33.2077,-79.953655,Berkeley County
2324,33.67478,-80.780347,Calhoun County
2325,32.800458,-79.94248,Charleston County
2326,35.049796,-81.607647,Cherokee County
2327,34.689342,-81.161249,Chester County
2328,34.637018,-80.159227,Chesterfield County
2329,33.664682,-80.217889,Clarendon County
2330,32.835018,-80.655244,Colleton County
2331,34.332185,-79.962115,Darlington County
2332,34.390172,-79.374964,Dillon County
2333,33.082186,-80.404697,Dorchester County
2334,33.776498,-81.968245,Edgefield County
2335,34.395669,-81.127001,Fairfield County
2336,34.028535,-79.710233,Florence County
2337,33.417531,-79.296333,Georgetown County
2338,34.892645,-82.372077,Greenville County
2339,34.155796,-82.127876,Greenwood County
2340,32.778334,-81.143822,Hampton County
2341,33.909269,-78.976675,Horry County
2342,32.43059,-81.021627,Jasper County
2343,34.338356,-80.590885,Kershaw County
2344,34.686818,-80.703688,Lancaster County
2345,34.483676,-82.005498,Laurens County
2346,34.15864,-80.251209,Lee County
2347,33.892589,-81.272831,Lexington County
2348,33.897599,-82.316196,McCormick County
2349,34.08362,-79.354001,Marion County
2350,34.60167,-79.679435,Marlboro County
2351,34.289899,-81.599703,Newberry County
2352,34.748766,-83.06154,Oconee County
2353,33.436135,-80.802913,Orangeburg County
2354,34.885368,-82.723377,Pickens County
2355,34.029095,-80.898037,Richland County
2356,34.005278,-81.727903,Saluda County
2357,34.933271,-81.991052,Spartanburg County
2358,33.91614,-80.382376,Sumter County
2359,34.690397,-81.615896,Union County
2360,33.626462,-79.716474,Williamsburg County
2361,34.970188,-81.183187,York County
2362,43.724719,-98.577587,Aurora County
2363,44.418265,-98.279422,Beadle County
2364,43.186912,-101.677181,Bennett County
2365,42.985799,-97.884199,Bon Homme County
2366,44.376675,-96.797797,Brookings County
2367,45.589254,-98.352175,Brown County
2368,43.729873,-99.092909,Brule County
2369,44.044306,-99.203998,Buffalo County
2370,44.896226,-103.501436,Butte County
2371,45.785575,-100.002107,Campbell County
2372,43.206185,-98.595143,Charles Mix County
2373,44.855211,-97.724912,Clark County
2374,42.91615,-96.980468,Clay County
2375,44.966285,-97.198837,Codington County
2376,45.685671,-101.179665,Corson County
2377,43.684943,-103.46225,Custer County
2378,43.680439,-98.155868,Davison County
2379,45.355161,-97.58143,Day County
2380,44.75629,-96.690239,Deuel County
2381,45.148049,-100.837953,Dewey County
2382,43.391506,-98.358433,Douglas County
2383,45.41168,-99.205362,Edmunds County
2384,43.221619,-103.512609,Fall River County
2385,45.065476,-99.153564,Faulk County
2386,45.172637,-96.772261,Grant County
2387,43.175142,-99.206591,Gregory County
2388,44.282885,-101.59546,Haakon County
2389,44.680619,-97.178598,Hamlin County
2390,44.546713,-99.004575,Hand County
2391,43.680612,-97.796845,Hanson County
2392,45.596611,-103.473871,Harding County
2393,44.384452,-99.975684,Hughes County
2394,43.33671,-97.749383,Hutchinson County
2395,44.537167,-99.472878,Hyde County
2396,43.677506,-101.626323,Jackson County
2397,44.06341,-98.62317,Jerauld County
2398,43.951991,-100.686138,Jones County
2399,44.362969,-97.499313,Kingsbury County
2400,44.02845,-97.123223,Lake County
2401,44.348767,-103.804947,Lawrence County
2402,43.27942,-96.722286,Lincoln County
2403,43.894812,-99.841925,Lyman County
2404,43.680416,-97.358048,McCook County
2405,45.784249,-99.211421,McPherson County
2406,45.737044,-97.58087,Marshall County
2407,44.605282,-102.714169,Meade County
2408,43.58469,-100.760955,Mellette County
2409,44.021541,-97.608122,Miner County
2410,43.667472,-96.795726,Minnehaha County
2411,44.012429,-96.676054,Moody County
2412,43.33358,-102.561686,Oglala Lakota County
2413,44.002349,-102.823801,Pennington County
2414,45.483387,-102.467995,Perkins County
2415,45.052713,-99.962003,Potter County
2416,45.623397,-96.947551,Roberts County
2417,44.018942,-98.091709,Sanborn County
2418,44.923772,-98.339615,Spink County
2419,44.415547,-100.749163,Stanley County
2420,44.722325,-100.131399,Sully County
2421,43.208794,-100.707664,Todd County
2422,43.349729,-99.876219,Tripp County
2423,43.30867,-97.150185,Turner County
2424,42.831106,-96.650829,Union County
2425,45.427605,-100.027856,Walworth County
2426,43.006603,-97.388361,Yankton County
2427,44.989764,-101.660827,Ziebach County
2428,36.116731,-84.195418,Anderson County
2429,35.51366,-86.458294,Bedford County
2430,36.070948,-88.071232,Benton County
2431,35.593561,-85.20591,Bledsoe County
2432,35.688185,-83.922973,Blount County
2433,35.153914,-84.859414,Bradley County
2434,36.401592,-84.159249,Campbell County
2435,35.808394,-86.062404,Cannon County
2436,35.965748,-88.452379,Carroll County
2437,36.284744,-82.126593,Carter County
2438,36.255169,-87.100808,Cheatham County
2439,35.420253,-88.611353,Chester County
2440,36.501542,-83.660722,Claiborne County
2441,36.545749,-85.545717,Clay County
2442,35.916198,-83.119224,Cocke County
2443,35.488759,-86.078219,Coffee County
2444,35.818795,-89.132494,Crockett County
2445,35.952398,-84.994761,Cumberland County
2446,36.169129,-86.78479,Davidson County
2447,35.603136,-88.110292,Decatur County
2448,35.982219,-85.833596,DeKalb County
2449,36.145533,-87.364155,Dickson County
2450,36.054196,-89.398306,Dyer County
2451,35.196993,-89.413803,Fayette County
2452,36.369892,-84.937764,Fentress County
2453,35.155926,-86.099203,Franklin County
2454,35.991632,-88.933812,Gibson County
2455,35.202723,-87.035319,Giles County
2456,36.277509,-83.509546,Grainger County
2457,36.179487,-82.847523,Greene County
2458,35.393386,-85.710379,Grundy County
2459,36.218397,-83.266071,Hamblen County
2460,35.163472,-85.201843,Hamilton County
2461,36.521353,-83.227493,Hancock County
2462,35.218785,-88.988697,Hardeman County
2463,35.201893,-88.185696,Hardin County
2464,36.452089,-82.931485,Hawkins County
